City_ID,City,Lat,Lng,Max Temp,Humidity,Cloudiness,Wind Speed,Country,Date
0,port-aux-francais,-49.35,70.2167,39.34,69,90,28.1,TF,2025-01-01
1,minas de marcona,-15.2119,-75.1103,62.62,85,98,4.09,PE,2025-01-01
2,zhezqazghan,47.7833,67.7667,10.98,85,100,4.47,KZ,2025-01-01
3,bardai,11.65,7.2333,64.22,26,1,13.51,NG,2025-01-01
4,adamstown,-25.066,-130.1015,75.76,82,53,11.77,PN,2025-01-01
5,lerwick,60.1545,-1.1494,36.18,66,99,25.86,GB,2025-01-01
6,bethel,41.3712,-73.414,43.9,88,100,11.5,US,2025-01-01
7,georgetown,5.4112,100.3354,89.53,62,20,7.0,MY,2025-01-01
8,barah,13.7,30.3667,61.18,24,0,15.35,SD,2025-01-01
9,olonkinbyen,70.9221,-8.7187,23.86,60,100,19.91,SJ,2025-01-01
10,san ignacio,17.1561,-89.0714,75.34,100,40,0.0,BZ,2025-01-01
11,lensk,60.7253,114.9278,-4.31,95,100,7.81,RU,2025-01-01
12,albany,42.6001,-73.9662,40.26,79,100,1.99,US,2025-01-01
13,den burg,53.0542,4.7972,49.98,81,100,33.38,NL,2025-01-01
14,edinburgh of the seven seas,-37.0676,-12.3116,55.76,61,92,6.46,SH,2025-01-01
15,maposeni,-10.5833,35.4,72.55,94,100,2.77,TZ,2025-01-01
16,kone,-21.0595,164.8658,82.63,60,83,5.1,NC,2025-01-01
17,alice springs,-23.7,133.8833,98.15,8,10,17.27,AU,2025-01-01
18,grytviken,-54.2811,-36.5092,35.46,80,43,15.5,GS,2025-01-01
19,wailua homesteads,22.0669,-159.378,74.19,85,40,18.41,US,2025-01-01
20,puerto ayora,-0.7393,-90.3518,73.0,86,74,5.3,EC,2025-01-01
21,colchani,-20.3,-66.9333,53.42,55,99,13.51,BO,2025-01-01
22,utrik,11.2278,169.8474,80.67,80,6,16.2,MH,2025-01-01
23,nyurba,63.2842,118.3319,-24.79,98,100,1.81,RU,2025-01-01
24,whitehorse,60.7161,-135.0538,-4.7,83,100,0.0,CA,2025-01-01
25,thompson,55.7435,-97.8558,14.16,85,100,9.22,CA,2025-01-01
26,mossel bay,-34.1831,22.146,66.13,62,0,3.04,ZA,2025-01-01
27,mullovka,54.2,49.4,21.02,89,72,14.54,RU,2025-01-01
28,embrun,44.5639,6.4953,29.23,63,1,4.16,FR,2025-01-01
29,puerto natales,-51.7236,-72.4875,44.6,95,10,1.83,CL,2025-01-01
30,hilo,19.7297,-155.09,73.13,93,100,5.75,US,2025-01-01
31,jiangyou,31.7667,104.7167,52.68,57,98,1.7,CN,2025-01-01
32,roma,43.2128,-75.4557,40.68,90,100,4.0,US,2025-01-01
33,veinticinco de mayo,-35.4323,-60.1727,68.99,85,90,5.57,AR,2025-01-01
34,chonchi,-42.6128,-73.8092,53.11,99,75,2.15,CL,2025-01-01
35,muli,2.9167,73.5667,79.99,81,76,12.48,MV,2025-01-01
36,holualoa,19.6228,-155.9522,72.82,89,25,1.14,US,2025-01-01
37,lodja,-3.4833,23.4333,73.11,86,100,1.77,CD,2025-01-01
38,nagqu,31.5,92.0,24.46,21,99,26.53,CN,2025-01-01
39,mpongwe,-13.5091,28.155,65.41,97,100,5.01,ZM,2025-01-01
40,coquimbo,-29.9533,-71.3436,62.33,94,100,5.75,CL,2025-01-01
41,ust-nera,64.5667,143.2,-34.89,99,91,6.35,RU,2025-01-01
42,dunedin,-45.8742,170.5036,57.11,73,100,4.72,NZ,2025-01-01
43,waitangi,-43.9535,-176.5597,61.83,95,100,4.0,NZ,2025-01-01
44,tostado,-29.232,-61.7692,71.98,76,16,5.99,AR,2025-01-01
45,val-d'or,48.1002,-77.7828,30.29,100,100,3.44,CA,2025-01-01
46,hadibu,12.65,54.0333,74.68,77,63,6.89,YE,2025-01-01
47,udachny,66.4167,112.4,-26.03,100,100,3.83,RU,2025-01-01
48,ushuaia,-54.8,-68.3,49.66,93,100,9.22,AR,2025-01-01
49,prince george,53.9166,-122.753,11.28,85,40,0.0,CA,2025-01-01
50,badger,64.8,-147.5333,-16.35,77,0,0.0,US,2025-01-01
51,saipan,15.1355,145.701,88.5,77,40,12.66,MP,2025-01-01
52,big rapids,43.6981,-85.4837,32.32,93,100,5.75,US,2025-01-01
53,taro,-8.3862,115.28,76.68,80,100,3.33,ID,2025-01-01
54,elliot lake,46.3834,-82.6331,28.87,90,100,3.69,CA,2025-01-01
55,dordrecht,51.81,4.6736,46.98,85,100,14.0,NL,2025-01-01
56,maunabo,18.0072,-65.8993,72.9,83,81,6.46,PR,2025-01-01
57,youhao,47.8667,128.8333,13.06,82,100,7.05,CN,2025-01-01
58,iqaluit,63.7506,-68.5145,19.13,79,100,10.36,CA,2025-01-01
59,nabire,-3.3667,135.4833,83.57,80,67,6.35,ID,2025-01-01
60,bredasdorp,-34.5322,20.0403,66.61,60,0,2.86,ZA,2025-01-01
61,leeton,-34.5667,146.4,93.09,12,0,14.36,AU,2025-01-01
62,san luis,-33.295,-66.3356,66.79,80,96,5.26,AR,2025-01-01
63,robertsport,6.7533,-11.3686,74.28,93,48,4.43,LR,2025-01-01
64,al ghayzah,16.2079,52.176,73.13,60,3,1.7,YE,2025-01-01
65,kudahuvadhoo,2.6708,72.8944,79.79,78,61,6.17,MV,2025-01-01
66,severodvinsk,64.5635,39.8302,21.06,93,47,11.25,RU,2025-01-01
67,lusaka,-15.4067,28.2871,65.97,93,99,4.74,ZM,2025-01-01
68,lebu,-37.6167,-73.65,52.74,90,0,18.77,CL,2025-01-01
69,portland,45.5234,-122.6762,41.05,94,100,3.0,US,2025-01-01
70,tazovsky,67.4667,78.7,11.86,93,95,15.95,RU,2025-01-01
71,murmashi,68.8154,32.8115,25.21,86,40,6.71,RU,2025-01-01
72,papatowai,-46.5619,169.4708,57.09,72,20,7.65,NZ,2025-01-01
73,ribeira grande,38.5167,-28.7,63.77,96,100,11.01,PT,2025-01-01
74,picos,-7.0769,-41.4669,75.96,76,85,0.81,BR,2025-01-01
75,longyearbyen,78.2186,15.6401,8.44,78,20,8.05,SJ,2025-01-01
76,port elizabeth,-33.918,25.5701,72.32,76,0,6.91,ZA,2025-01-01
77,saldanha,-33.0117,17.9442,59.05,75,0,6.96,ZA,2025-01-01
78,tantou,26.0314,119.5986,56.97,44,75,8.95,CN,2025-01-01
79,codrington,-38.2667,141.9667,65.32,61,77,18.75,AU,2025-01-01
80,anadyr,64.75,177.4833,25.3,80,40,11.18,RU,2025-01-01
81,margaret river,-33.95,115.0667,82.42,51,7,12.75,AU,2025-01-01
82,san fernando de apure,7.8878,-67.4724,79.72,63,46,7.29,VE,2025-01-01
83,constantia,44.1833,28.65,34.7,63,4,8.97,RO,2025-01-01
84,blackmans bay,-43.0167,147.3167,65.73,47,78,5.01,AU,2025-01-01
85,puerto baquerizo moreno,-0.9,-89.6,73.35,87,23,9.57,EC,2025-01-01
86,nova sintra,14.8667,-24.7167,76.75,74,98,12.97,CV,2025-01-01
87,isafjordur,66.0755,-23.124,16.18,70,1,5.97,IS,2025-01-01
88,seme,15.1942,-12.9448,65.07,24,0,9.89,SN,2025-01-01
89,prince rupert,54.3161,-130.3201,42.49,72,100,20.71,CA,2025-01-01
90,vila franca do campo,37.7167,-25.4333,64.89,99,100,26.11,PT,2025-01-01
91,banting,2.8167,101.5,89.73,74,69,4.09,MY,2025-01-01
92,ulsteinvik,62.3432,5.8487,30.33,69,12,1.01,NO,2025-01-01
93,luderitz,-26.6481,15.1594,61.14,84,0,20.74,NA,2025-01-01
94,yakeshi,49.2833,120.7333,1.2,95,100,3.71,CN,2025-01-01
95,bargaal,11.2864,51.0773,77.05,61,73,10.8,SO,2025-01-01
96,al jawf,29.5,38.75,44.67,82,6,7.74,SA,2025-01-01
97,auki,-8.7676,160.7034,82.17,83,84,3.76,SB,2025-01-01
98,ilulissat,69.2167,-51.1,12.22,48,20,2.3,GL,2025-01-01
99,tolanaro,-25.0319,46.9987,87.87,58,20,24.16,MG,2025-01-01
100,hawick,55.4227,-2.7867,43.12,89,100,17.05,GB,2025-01-01
101,kutum,14.2,24.6667,52.21,36,0,10.6,SD,2025-01-01
102,alesund,62.4723,6.1549,30.34,69,14,17.27,NO,2025-01-01
103,prado,-17.3411,-39.2208,72.21,94,100,3.89,BR,2025-01-01
104,tres arroyos,-38.3739,-60.2798,61.43,91,75,2.59,AR,2025-01-01
105,loango,-4.6719,11.8312,78.71,88,99,3.62,CG,2025-01-01
106,chita,52.0333,113.55,10.29,57,66,4.47,RU,2025-01-01
107,khandyga,62.6667,135.6,-46.97,98,99,0.16,RU,2025-01-01
108,port lincoln,-34.7333,135.8667,68.68,63,0,16.69,AU,2025-01-01
109,invercargill,-46.4,168.35,60.03,73,19,7.0,NZ,2025-01-01
110,urengoy,65.9667,78.3667,9.41,95,100,13.38,RU,2025-01-01
111,igrim,63.1906,64.4162,15.31,95,91,7.31,RU,2025-01-01
112,quellon,-43.1167,-73.6167,51.22,98,87,4.52,CL,2025-01-01
113,ola,59.5833,151.2833,-21.17,81,0,5.73,RU,2025-01-01
114,hermanus,-34.4187,19.2345,63.81,61,0,1.45,ZA,2025-01-01
115,armidale,-30.5167,151.65,65.53,78,100,7.87,AU,2025-01-01
116,xinqing,48.2333,129.5,10.85,81,99,5.88,CN,2025-01-01
117,uturoa,-16.7333,-151.4333,82.6,70,76,0.07,PF,2025-01-01
118,sao vicente,-23.9631,-46.3919,71.98,26,38,1.59,BR,2025-01-01
119,kerikeri,-35.2268,173.9474,71.91,60,4,4.0,NZ,2025-01-01
120,bodo,67.28,14.405,32.04,81,75,11.5,NO,2025-01-01
121,maua,-23.6678,-46.4614,69.01,90,69,3.65,BR,2025-01-01
122,jamestown,42.097,-79.2353,42.03,98,100,5.75,US,2025-01-01
123,port augusta,-32.5,137.7667,82.8,31,0,22.7,AU,2025-01-01
124,yellowknife,62.456,-114.3525,-6.45,77,100,10.36,CA,2025-01-01
125,mukalla,14.5425,49.1242,73.33,65,4,1.97,YE,2025-01-01
126,remire-montjoly,4.9167,-52.2667,75.24,100,75,2.3,GF,2025-01-01
127,belyy yar,53.6039,91.3903,-5.91,92,100,0.0,RU,2025-01-01
128,mancio lima,-7.6142,-72.8958,73.26,93,99,1.9,BR,2025-01-01
129,tataouine,32.9297,10.4518,48.49,85,99,10.13,TN,2025-01-01
130,san patricio,28.017,-97.5169,57.15,51,16,9.53,US,2025-01-01
131,rucar,45.4,25.1667,34.2,61,11,3.94,RO,2025-01-01
132,susuman,62.7833,148.1667,-28.93,100,95,1.68,RU,2025-01-01
133,tura,25.5198,90.2201,74.93,38,0,4.0,IN,2025-01-01
134,west island,-12.1568,96.8225,85.98,70,20,8.05,CC,2025-01-01
135,maraial,-8.7825,-35.8089,69.73,94,58,1.83,BR,2025-01-01
136,ha'il,27.5219,41.6907,35.62,64,0,4.61,SA,2025-01-01
137,howard springs,-12.497,131.047,93.11,49,77,7.96,AU,2025-01-01
138,ath thawrah,35.8469,38.5443,49.37,66,6,5.23,SY,2025-01-01
139,hasaki,35.7333,140.8333,49.26,32,47,6.6,JP,2025-01-01
140,callao,-12.0667,-77.15,73.72,83,75,8.05,PE,2025-01-01
141,lucapa,-8.4192,20.7447,67.35,91,100,0.69,AO,2025-01-01
142,qaqortoq,60.7167,-46.0333,2.95,68,1,6.53,GL,2025-01-01
143,talnakh,69.4865,88.3972,11.25,86,100,14.12,RU,2025-01-01
144,hawaiian paradise park,19.5933,-154.9731,72.91,96,100,5.75,US,2025-01-01
145,bakchar,57.0186,82.0711,6.82,89,67,7.81,RU,2025-01-01
146,tasqala,51.1167,50.3167,30.72,92,100,17.76,KZ,2025-01-01
147,neiafu,-18.65,-173.9833,84.88,79,40,5.75,TO,2025-01-01
148,sinabang,2.4803,96.3801,83.53,71,48,1.19,ID,2025-01-01
149,porbandar,21.6422,69.6093,75.18,46,1,9.22,IN,2025-01-01
150,natal,-5.795,-35.2094,79.02,83,20,8.05,BR,2025-01-01
151,stanley,54.868,-1.6985,41.02,90,75,13.8,GB,2025-01-01
152,kununurra,-15.7667,128.7333,100.38,44,83,5.75,AU,2025-01-01
153,soio,-6.1349,12.3689,80.13,89,100,4.59,AO,2025-01-01
154,belokurikha,51.9959,84.9896,24.85,80,27,1.14,RU,2025-01-01
155,muang xay,20.7,101.9833,81.01,38,1,3.85,LA,2025-01-01
156,sur,22.5667,59.5289,73.53,59,59,8.14,OM,2025-01-01
157,leer,53.2316,7.461,46.94,92,100,29.06,DE,2025-01-01
158,cockburn town,21.4612,-71.1419,76.57,64,91,12.17,TC,2025-01-01
159,kiunga,-6.1219,141.2906,86.14,72,75,2.57,PG,2025-01-01
160,kidal,18.4411,1.4078,60.22,22,0,11.32,ML,2025-01-01
161,keflavik,64.0049,-22.5624,21.63,68,0,12.66,IS,2025-01-01
162,sabang,5.8933,95.3214,82.18,73,75,13.22,ID,2025-01-01
163,horta,38.5333,-28.6333,63.01,96,100,11.01,PT,2025-01-01
164,bilibino,68.0546,166.4372,17.67,87,100,2.91,RU,2025-01-01
165,hamilton,39.1834,-84.5333,39.42,90,100,16.11,US,2025-01-01
166,college,64.8569,-147.8028,-16.91,73,0,0.0,US,2025-01-01
167,darwin,-12.4611,130.8418,93.18,70,40,12.66,AU,2025-01-01
168,barra de santo antonio,-9.4047,-35.5072,79.11,70,74,8.93,BR,2025-01-01
169,siniscola,40.5719,9.6922,44.13,80,13,4.38,IT,2025-01-01
170,nadi,-17.8,177.4167,82.4,74,100,0.0,FJ,2025-01-01
171,ringkobing,56.0901,8.244,46.38,87,100,14.97,DK,2025-01-01
172,st. john's,47.5649,-52.7093,39.15,97,100,6.91,CA,2025-01-01
173,kemi,65.8596,24.8228,2.97,92,75,1.14,FI,2025-01-01
174,punta arenas,-53.15,-70.9167,50.11,81,40,3.44,CL,2025-01-01
175,yungay,-9.1383,-77.7436,53.38,93,100,3.15,PE,2025-01-01
176,quthing,-30.4,27.7003,73.13,54,79,4.79,LS,2025-01-01
177,valparaiso,-33.0393,-71.6273,55.04,87,0,4.61,CL,2025-01-01
178,casas grandes,30.3667,-107.95,50.52,17,68,8.05,MX,2025-01-01
179,chiguayante,-36.9167,-73.0167,50.52,76,0,6.91,CL,2025-01-01
180,saint-philippe,-21.3585,55.7679,80.46,77,73,6.2,RE,2025-01-01
181,tsuruoka,38.7217,139.8217,41.04,56,75,12.66,JP,2025-01-01
182,brookings,44.3114,-96.7984,20.05,80,100,11.5,US,2025-01-01
183,afaahiti,-17.75,-149.2833,78.8,75,34,5.86,PF,2025-01-01
184,lihue,21.9789,-159.3672,74.79,80,40,18.41,US,2025-01-01
185,mata-utu,-13.2816,-176.1745,84.4,69,46,3.78,WF,2025-01-01
186,kailua-kona,19.6406,-155.9956,76.55,92,25,1.01,US,2025-01-01
187,yelizovo,53.1873,158.3805,19.54,79,100,2.24,RU,2025-01-01
188,dudinka,69.4058,86.1778,11.62,93,100,23.31,RU,2025-01-01
189,broken hill,-31.95,141.4333,89.69,12,0,20.56,AU,2025-01-01
190,kapuskasing,49.4169,-82.4331,26.69,100,100,3.44,CA,2025-01-01
191,puerto madero,14.7208,-92.4215,75.4,94,20,0.0,MX,2025-01-01
192,inarajan village,13.2736,144.7484,88.77,83,33,12.5,GU,2025-01-01
193,grabouw,-34.1515,19.0151,61.48,56,0,2.42,ZA,2025-01-01
194,aasiaat,68.7098,-52.8699,-2.18,82,34,4.83,GL,2025-01-01
195,praia da vitoria,38.7333,-27.0667,62.85,100,75,28.23,PT,2025-01-01
196,mawlamyinegyunn,16.3833,95.2667,86.14,44,83,3.76,MM,2025-01-01
197,mendi,-6.1761,143.6513,63.77,93,70,3.02,PG,2025-01-01
198,progreso,21.2833,-89.6667,74.1,93,97,10.04,MX,2025-01-01
199,lajere,11.9797,11.4443,61.43,42,5,9.06,NG,2025-01-01
200,queenstown,-31.8976,26.8753,71.55,56,7,1.83,ZA,2025-01-01
201,wynyard,-41.0,145.7167,66.18,50,57,5.01,AU,2025-01-01
202,carutapera,-1.195,-46.02,78.66,85,100,5.77,BR,2025-01-01
203,arecibo,18.4724,-66.7157,72.28,81,100,7.25,PR,2025-01-01
204,vadso,70.0744,29.7487,24.96,74,20,11.5,NO,2025-01-01
205,saint-pierre,-21.3393,55.4781,85.68,62,0,8.05,RE,2025-01-01
206,tromso,69.6496,18.957,26.62,80,75,6.91,NO,2025-01-01
207,amos,48.5669,-78.1162,26.47,98,100,2.59,CA,2025-01-01
208,datca,36.7378,27.6842,52.74,63,0,2.19,TR,2025-01-01
209,shakawe,-18.3667,21.85,72.19,87,100,2.98,BW,2025-01-01
210,glace bay,46.1969,-59.957,35.17,98,100,3.44,CA,2025-01-01
211,el rama,12.1596,-84.2195,71.47,98,100,1.83,NI,2025-01-01
212,vorgashor,67.5833,63.95,18.5,83,100,21.27,RU,2025-01-01
213,mahina,-17.5065,-149.489,80.37,89,75,10.36,PF,2025-01-01
214,inirida,3.8653,-67.9239,71.53,96,19,1.5,CO,2025-01-01
215,concordia,-31.393,-58.0209,72.79,73,14,8.1,AR,2025-01-01
216,rio preto da eva,-2.6994,-59.6997,73.78,99,100,2.33,BR,2025-01-01
217,ghanzi,-21.5667,21.7833,73.0,77,100,10.8,BW,2025-01-01
218,puerto deseado,-47.7503,-65.8938,54.93,68,81,17.47,AR,2025-01-01
219,atafu village,-8.5421,-172.5159,83.3,73,100,12.93,TK,2025-01-01
220,la ronge,55.1001,-105.2842,-0.15,78,100,11.5,CA,2025-01-01
221,kars,40.602,43.095,7.25,85,0,5.75,TR,2025-01-01
222,akjoujt,19.6969,-14.4164,56.35,27,11,12.24,MR,2025-01-01
223,ban nam yuen,9.8769,98.8659,84.34,50,88,7.52,TH,2025-01-01
224,skelleftea,64.7507,20.9528,5.36,100,99,5.75,SE,2025-01-01
225,qui nhon,13.7667,109.2333,71.56,85,100,15.17,VN,2025-01-01
226,markovo,57.3206,107.0881,8.1,91,100,8.16,RU,2025-01-01
227,sosnovo-ozerskoye,52.5249,111.5418,10.24,67,70,14.45,RU,2025-01-01
228,saint croix,17.7397,-64.7388,73.96,79,40,5.75,VI,2025-01-01
229,fisterra,42.9049,-9.2629,55.53,68,30,19.42,ES,2025-01-01
230,laguna,38.421,-121.4238,48.34,81,0,4.61,US,2025-01-01
231,russellville,35.2784,-93.1338,44.74,61,100,5.75,US,2025-01-01
232,ust'-kulom,61.6864,53.6902,7.56,99,84,4.0,RU,2025-01-01
233,fuxin,42.0156,121.6589,31.46,25,97,6.51,CN,2025-01-01
234,yatou,37.15,122.3833,45.14,43,0,4.74,CN,2025-01-01
235,taroa,8.7058,171.2275,81.59,79,21,18.1,MH,2025-01-01
236,dazhong,33.1997,120.4578,53.87,26,0,4.85,CN,2025-01-01
237,bonthe,7.5264,-12.505,73.72,91,7,4.09,SL,2025-01-01
238,klyuchi,52.2667,79.1667,13.01,95,100,7.78,RU,2025-01-01
239,shwebo,22.5667,95.7,81.23,41,0,2.19,MM,2025-01-01
240,timbuktu,16.7735,-3.0074,56.88,24,0,13.27,ML,2025-01-01
241,fale old settlement,-9.3852,-171.2468,82.08,77,77,10.74,TK,2025-01-01
242,maun,-19.9833,23.4167,73.76,79,100,6.44,BW,2025-01-01
243,nar'yan-mar,67.6713,53.087,25.27,90,100,22.55,RU,2025-01-01
244,colonia,50.9333,6.95,43.45,84,40,13.8,DE,2025-01-01
245,haiku-pauwela,20.9219,-156.3051,74.05,84,40,13.8,US,2025-01-01
246,suez,29.9737,32.5263,56.61,63,50,6.6,EG,2025-01-01
247,eregli,37.5133,34.0467,34.27,72,6,2.17,TR,2025-01-01
248,kolonia,50.9333,6.95,43.45,84,40,13.8,DE,2025-01-01
249,sept-iles,50.2001,-66.3821,32.52,98,100,3.44,CA,2025-01-01
250,chicoana,-25.1009,-65.5331,68.05,70,45,2.77,AR,2025-01-01
251,kem',64.9555,34.5793,18.19,93,64,8.9,RU,2025-01-01
252,kodiak,57.79,-152.4072,40.51,87,100,31.07,US,2025-01-01
253,labrador city,52.9463,-66.9114,31.91,86,100,9.22,CA,2025-01-01
254,erenhot,43.6475,111.9767,19.51,37,94,11.23,CN,2025-01-01
255,altai,46.3722,96.2583,7.38,69,82,2.44,MN,2025-01-01
256,kenai,60.5544,-151.2583,25.14,66,0,11.5,US,2025-01-01
257,port blair,11.6667,92.75,84.24,74,40,9.22,IN,2025-01-01
258,sinop,41.7711,34.8709,38.25,62,1,6.04,TR,2025-01-01
259,tiksi,71.6872,128.8694,-15.11,100,100,4.85,RU,2025-01-01
260,protaras,35.0125,34.0583,54.0,70,0,7.0,CY,2025-01-01
261,wajir,1.7471,40.0573,79.63,62,6,13.91,KE,2025-01-01
262,singaraja,-8.112,115.0882,82.6,81,100,4.0,ID,2025-01-01
263,lagunas,-5.2269,-75.6753,73.24,98,100,1.59,PE,2025-01-01
264,kwakoa,-3.7667,37.7167,76.32,66,54,1.68,TZ,2025-01-01
265,iskateley,67.6803,53.1512,25.2,90,100,22.44,RU,2025-01-01
266,zbaszyn,52.2509,15.9252,39.18,81,100,18.41,PL,2025-01-01
267,brigantine,39.4101,-74.3646,50.05,97,0,5.99,US,2025-01-01
268,chemmumiahpet,15.8979,79.3213,82.65,46,33,7.25,IN,2025-01-01
269,port alfred,-33.5906,26.891,73.18,57,0,1.01,ZA,2025-01-01
270,madera,37.1666,-119.8343,51.73,88,85,2.73,US,2025-01-01
271,kalmunai,7.4167,81.8167,80.11,85,99,16.75,LK,2025-01-01
272,labytnangi,66.6572,66.4183,16.25,95,100,12.53,RU,2025-01-01
273,galle,6.0367,80.217,82.92,79,94,1.99,LK,2025-01-01
274,new norfolk,-42.7826,147.0587,66.92,36,69,11.21,AU,2025-01-01
275,newman,37.3138,-121.0208,44.04,82,100,3.06,US,2025-01-01
276,kapa'a,22.0752,-159.319,75.52,84,40,18.41,US,2025-01-01
277,kenora,49.8167,-94.4337,13.17,85,100,6.91,CA,2025-01-01
278,baltasi,56.3462,50.2062,21.22,91,82,14.67,RU,2025-01-01
279,avondale,33.4356,-112.3496,54.01,44,0,1.01,US,2025-01-01
280,kuvshinovo,57.0295,34.1725,25.47,92,100,9.17,RU,2025-01-01
281,soe,-9.8607,124.284,79.84,71,99,1.68,ID,2025-01-01
282,norilsk,69.3535,88.2027,10.45,86,100,11.12,RU,2025-01-01
283,moranbah,-22.0016,148.0466,69.96,90,60,23.42,AU,2025-01-01
284,chilliwack,49.1747,-121.9443,36.01,99,100,3.13,CA,2025-01-01
285,daru,-9.0763,143.2092,86.22,57,73,9.8,PG,2025-01-01
286,naze,28.3667,129.4833,63.52,56,15,9.35,JP,2025-01-01
287,crevalcore,44.7206,11.1498,41.34,93,0,2.44,IT,2025-01-01
288,iwanai,42.9744,140.5089,29.64,82,100,10.16,JP,2025-01-01
289,hithadhoo,-0.6,73.0833,82.09,72,4,15.73,MV,2025-01-01
290,washington court house,39.5364,-83.4391,35.82,94,100,20.71,US,2025-01-01
291,palmer,42.1584,-72.3287,43.52,71,100,1.99,US,2025-01-01
292,canela,-29.3656,-50.8156,63.34,81,95,1.99,BR,2025-01-01
293,ust'-ilimsk,58.0006,102.6619,5.81,95,96,5.61,RU,2025-01-01
294,rasht,37.2808,49.5832,48.02,93,75,6.91,IR,2025-01-01
295,mashava,-20.0367,30.4823,77.27,61,8,4.94,ZW,2025-01-01
296,tsiombe,-25.3,45.4833,95.56,33,2,6.15,MG,2025-01-01
297,dryden,49.7833,-92.7503,14.29,85,75,11.5,CA,2025-01-01
298,igarka,67.4667,86.5833,11.89,94,100,18.5,RU,2025-01-01
299,magway,20.15,94.9167,82.11,46,1,5.03,MM,2025-01-01
300,tshabong,-26.05,22.45,80.1,58,99,7.67,BW,2025-01-01
301,touros,-5.1989,-35.4608,80.04,77,33,11.88,BR,2025-01-01
302,teguise,29.0605,-13.564,55.62,77,0,6.91,ES,2025-01-01
303,east london,-33.0153,27.9116,70.74,64,0,2.3,ZA,2025-01-01
304,aitape,-3.1374,142.3475,81.59,82,100,3.94,PG,2025-01-01
305,khanty-mansiysk,61.0042,69.0019,15.91,86,75,13.42,RU,2025-01-01
306,regina,50.4501,-104.6178,8.58,78,100,14.97,CA,2025-01-01
307,bereket,39.2446,55.5154,42.46,57,4,1.16,TM,2025-01-01
308,fort st. john,56.2499,-120.8529,4.89,72,100,4.61,CA,2025-01-01
309,manjeshvar,12.7,74.8833,87.19,39,12,13.33,IN,2025-01-01
310,satipo,-11.2522,-74.6386,68.22,97,100,2.89,PE,2025-01-01
311,kibondo,-3.5864,30.7203,65.75,74,94,1.59,TZ,2025-01-01
312,campamento,14.55,-86.65,66.07,98,100,0.13,HN,2025-01-01
313,taybad,34.74,60.7756,39.85,81,100,19.19,IR,2025-01-01
314,alapa,8.6167,4.3833,72.68,30,22,2.71,NG,2025-01-01
315,belmonte,-15.8631,-38.8828,74.37,85,66,3.31,BR,2025-01-01
316,balakhta,55.38,91.6,2.17,96,75,1.54,RU,2025-01-01
317,gbarnga,6.9956,-9.4722,68.07,99,80,2.28,LR,2025-01-01
318,mbandaka,0.0487,18.2603,74.84,50,87,3.04,CD,2025-01-01
319,devrek,41.2192,31.9558,37.2,66,0,3.91,TR,2025-01-01
320,ishikawa,26.4233,127.8214,68.34,52,75,8.05,JP,2025-01-01
321,santiago de cao,-7.9589,-79.2392,66.33,82,75,3.44,PE,2025-01-01
322,vasilikon,38.4333,23.6667,44.47,100,0,4.61,GR,2025-01-01
323,al matariyah,31.1829,32.0311,57.15,66,55,4.72,EG,2025-01-01
324,gadzhiyevo,69.2551,33.3362,21.06,95,100,6.51,RU,2025-01-01
325,joshimath,30.5667,79.5667,54.12,27,21,3.65,IN,2025-01-01
326,harper,4.375,-7.7169,76.6,93,71,0.45,LR,2025-01-01
327,dul'durga,50.6761,113.5931,12.31,69,12,16.96,RU,2025-01-01
328,mary,37.0,62.5,45.3,68,86,6.82,TM,2025-01-01
329,tanah rata,4.475,101.3704,65.01,95,81,2.39,MY,2025-01-01
330,mabaruma,8.2,-59.7833,70.86,100,59,0.85,GY,2025-01-01
331,balabac,7.9868,117.0645,84.49,71,72,5.39,PH,2025-01-01
332,devils lake,48.1128,-98.8651,6.78,78,100,19.57,US,2025-01-01
333,aykhal,66.0,111.5,-25.06,100,100,5.48,RU,2025-01-01
334,vorkuta,67.5,64.0,18.32,81,100,21.12,RU,2025-01-01
335,bikenibeu village,1.3673,173.1241,85.96,74,20,9.22,KI,2025-01-01
336,dhidhdhoo,6.8833,73.1,83.08,71,93,10.07,MV,2025-01-01
337,george town,5.4112,100.3354,91.33,62,20,7.0,MY,2025-01-01
338,vernon,50.2581,-119.2691,33.33,86,100,5.75,CA,2025-01-01
339,newport,51.5877,-2.9984,54.54,86,100,33.96,GB,2025-01-01
340,alva,56.1528,-3.8051,39.69,87,100,4.68,GB,2025-01-01
341,bandar lampung,-5.4254,105.258,83.43,73,99,0.81,ID,2025-01-01
342,port mathurin,-19.6833,63.4167,78.03,76,69,11.9,MU,2025-01-01
343,show low,34.2542,-110.0298,28.69,54,0,5.75,US,2025-01-01
344,vilyuchinsk,52.9306,158.4028,19.67,87,98,8.32,RU,2025-01-01
345,al wakrah,24.85,51.3333,64.49,46,90,21.03,QA,2025-01-01
346,limoeiro do norte,-5.1456,-38.0981,77.83,79,46,6.78,BR,2025-01-01
347,battagram,34.6772,73.0233,59.67,27,100,6.17,PK,2025-01-01
348,howrah,22.5892,88.3103,68.0,64,3,5.75,IN,2025-01-01
349,calabozo,8.9242,-67.4293,76.15,71,33,6.4,VE,2025-01-01
350,avarua,-21.2078,-159.775,80.65,74,20,2.3,CK,2025-01-01
351,alofi,-19.0595,-169.9187,82.29,83,100,4.61,NU,2025-01-01
352,the pinery,39.4553,-104.7344,23.02,83,74,4.0,US,2025-01-01
353,villaguay,-31.8653,-59.0269,70.47,47,39,8.14,AR,2025-01-01
354,yamada,39.4667,141.95,36.64,52,12,8.25,JP,2025-01-01
355,mae ramat,16.984,98.5166,90.01,31,56,2.37,TH,2025-01-01
356,coahuayana de hidalgo,18.7,-103.6583,69.46,87,100,3.96,MX,2025-01-01
357,balkanabat,39.5108,54.3671,41.88,63,5,1.57,TM,2025-01-01
358,si sa ket,14.8333,104.3333,83.07,44,76,7.0,TH,2025-01-01
359,thurgoona,-36.0451,146.9919,89.65,23,1,10.0,AU,2025-01-01
360,vanimo,-2.6741,141.3028,79.59,91,98,11.27,PG,2025-01-01
361,viqueque,-8.8673,126.3658,88.7,61,83,0.96,TL,2025-01-01
362,portage la prairie,49.9728,-98.2926,6.89,66,100,11.59,CA,2025-01-01
363,acapulco de juarez,16.8634,-99.8901,75.02,88,40,4.61,MX,2025-01-01
364,trincomalee,8.5711,81.2335,80.22,80,100,22.37,LK,2025-01-01
365,fort mcmurray,56.7268,-111.381,-0.81,84,100,5.75,CA,2025-01-01
366,petropavlovsk-kamchatsky,53.0452,158.6483,18.19,79,100,2.24,RU,2025-01-01
367,ghat,24.9647,10.1728,53.01,35,11,5.93,LY,2025-01-01
368,lompoc,34.6391,-120.4579,52.52,72,0,10.36,US,2025-01-01
369,puerto aysen,-45.4,-72.7,51.4,99,93,3.91,CL,2025-01-01
370,san lawrenz,36.0553,14.204,57.79,63,14,11.05,MT,2025-01-01
371,sihanoukville,10.6093,103.5296,87.75,51,40,6.91,KH,2025-01-01
372,yung shue wan,22.2333,114.1167,67.75,68,83,5.01,HK,2025-01-01
373,tangalle,6.024,80.7911,78.66,85,100,19.26,LK,2025-01-01
374,bubaque,11.2833,-15.8333,78.42,47,2,16.93,GW,2025-01-01
375,cabo san lucas,22.8909,-109.9124,67.75,76,10,6.44,MX,2025-01-01
376,persembe,41.0656,37.7714,36.82,72,6,4.56,TR,2025-01-01
377,butterworth,5.3991,100.3638,91.44,62,20,7.0,MY,2025-01-01
378,sedro-woolley,48.5039,-122.2361,41.02,90,100,5.75,US,2025-01-01
379,puerto maldonado,-12.6,-69.1833,75.04,87,98,2.15,PE,2025-01-01
380,flying fish cove,-10.4217,105.6791,82.08,89,100,9.22,CX,2025-01-01
381,ilabaya,-17.4208,-70.5133,63.79,75,100,0.83,PE,2025-01-01
382,saint-francois,46.4154,3.9054,22.44,100,100,1.14,FR,2025-01-01
383,gudur,14.1333,79.85,82.24,62,25,7.43,IN,2025-01-01
384,nieves,15.3274,120.9485,83.73,67,99,4.25,PH,2025-01-01
385,pumiao,22.75,108.4833,73.92,31,0,4.27,CN,2025-01-01
386,parkes,-33.1333,148.1833,95.36,14,2,1.99,AU,2025-01-01
387,pechora,65.1472,57.2244,20.84,93,100,12.88,RU,2025-01-01
388,shorewood,41.52,-88.2017,34.29,87,100,13.8,US,2025-01-01
389,guerrero negro,27.9769,-114.0611,56.41,88,100,5.61,MX,2025-01-01
390,zykovo,55.9519,93.1461,16.54,81,97,3.02,RU,2025-01-01
391,hexham,54.9699,-2.104,42.94,86,100,23.13,GB,2025-01-01
392,pacific grove,36.6177,-121.9166,49.08,84,0,5.75,US,2025-01-01
393,neryungri,56.6709,124.6491,-4.23,91,100,6.85,RU,2025-01-01
394,fortuna,40.5982,-124.1573,44.92,95,75,5.99,US,2025-01-01
395,santa ana,33.7456,-117.8678,55.15,90,100,0.0,US,2025-01-01
396,bolands,17.0657,-61.8747,76.75,84,20,6.91,AG,2025-01-01
397,lyantonde,-0.4031,31.1572,67.69,55,100,0.51,UG,2025-01-01
398,chadron,42.8294,-102.9999,21.96,79,40,3.0,US,2025-01-01
399,lubang,13.8584,120.124,81.63,81,73,19.73,PH,2025-01-01
400,ambodifotatra,-16.9833,49.85,80.17,75,58,7.36,MG,2025-01-01
401,volokonovka,50.4827,37.8563,33.82,94,82,9.04,RU,2025-01-01
402,kropp,54.4167,9.5167,46.45,95,100,35.68,DE,2025-01-01
403,mimizan,44.2006,-1.2289,39.2,81,0,5.44,FR,2025-01-01
404,kavaratti,10.5669,72.642,82.51,71,10,8.99,IN,2025-01-01
405,motygino,58.1831,94.7592,11.41,95,100,5.99,RU,2025-01-01
406,monte alegre de sergipe,-10.0272,-37.5622,70.48,88,43,6.89,BR,2025-01-01
407,mount gambier,-37.8333,140.7667,67.23,53,33,12.01,AU,2025-01-01
408,scarborough,54.2797,-0.4044,43.84,64,100,1.99,GB,2025-01-01
409,santo antonio,-6.3106,-35.4789,79.56,70,100,10.45,BR,2025-01-01
410,fort bragg,35.139,-79.006,58.84,61,0,9.22,US,2025-01-01
411,iquique,-20.2208,-70.1431,68.25,75,95,4.16,CL,2025-01-01
412,villa gesell,-37.2639,-56.973,65.88,89,97,5.82,AR,2025-01-01
413,baotou,40.6522,109.8222,26.89,30,27,9.66,CN,2025-01-01
414,chinsali,-10.5414,32.0816,66.9,89,100,2.44,ZM,2025-01-01
415,novodvinsk,64.4165,40.8122,26.35,95,32,7.27,RU,2025-01-01
416,severo-yeniseyskiy,60.3725,93.0408,8.92,91,100,6.24,RU,2025-01-01
417,pont rouge,48.8833,-72.0825,32.09,93,100,4.18,CA,2025-01-01
418,chiang klang,19.2938,100.8617,84.96,37,0,1.99,TH,2025-01-01
419,tommot,58.9564,126.2925,-23.4,100,97,1.14,RU,2025-01-01
420,san antonio de pale,-1.4014,5.6325,80.8,80,74,6.85,GQ,2025-01-01
421,yantzaza,-3.8278,-78.7594,65.71,99,62,0.58,EC,2025-01-01
422,lewiston orchards,46.3804,-116.9754,35.87,85,0,3.44,US,2025-01-01
423,strezhevoy,60.7333,77.5889,11.19,91,100,13.24,RU,2025-01-01
424,ciudad lazaro cardenas,17.9583,-102.2,70.77,80,64,4.21,MX,2025-01-01
425,manicore,-5.8092,-61.3003,73.92,100,100,3.47,BR,2025-01-01
426,baruun-urt,46.6806,113.2792,9.5,60,1,10.8,MN,2025-01-01
427,jiagedaqi,50.4167,124.1167,7.54,82,35,1.95,CN,2025-01-01
428,beytussebap,37.5694,43.1681,20.08,82,18,10.58,TR,2025-01-01
429,kirakira,-10.4544,161.9205,82.27,83,85,4.21,SB,2025-01-01
430,rosetta,31.4044,30.4164,59.83,56,34,5.35,EG,2025-01-01
431,north bend,43.4065,-124.2243,46.17,93,100,3.44,US,2025-01-01
432,yuzhno-kurilsk,44.0306,145.8556,26.96,67,84,19.73,RU,2025-01-01
433,conception bay south,47.4999,-52.9981,38.91,98,100,8.37,CA,2025-01-01
434,champerico,14.3,-91.9167,77.77,80,94,5.5,GT,2025-01-01
435,ebensfeld,50.0664,10.9584,31.28,88,70,1.01,DE,2025-01-01
436,muroran,42.3172,140.9881,32.54,73,95,18.68,JP,2025-01-01
437,lakatoro,-16.0999,167.4164,82.62,75,33,2.46,VU,2025-01-01
438,rumbek,6.802,29.6912,77.02,19,6,10.29,SS,2025-01-01
439,sitka,57.0531,-135.33,40.89,38,100,16.11,US,2025-01-01
440,uzundere,40.5301,41.5584,22.41,94,100,3.56,TR,2025-01-01
441,vredendal,-31.6683,18.5012,65.25,65,0,5.03,ZA,2025-01-01
442,zhangye,38.9342,100.4517,25.59,53,97,4.27,CN,2025-01-01
443,yarmouth,41.7057,-70.2286,48.25,89,75,11.5,US,2025-01-01
444,walvis bay,-22.9575,14.5053,62.87,83,70,2.86,NA,2025-01-01
445,san pedro pochutla,15.7333,-96.4667,73.71,76,28,3.6,MX,2025-01-01
446,vice,-5.4167,-80.7833,72.64,72,93,9.1,PE,2025-01-01
447,sretensk,52.2453,117.7093,-2.88,93,83,3.29,RU,2025-01-01
448,pisco,-13.7,-76.2167,69.85,83,0,0.0,PE,2025-01-01
449,sao joao da barra,-21.6403,-41.0511,73.54,88,100,3.02,BR,2025-01-01
450,ponta delgada,37.7333,-25.6667,65.19,88,75,23.02,PT,2025-01-01
451,carlos chagas,-17.7031,-40.7664,71.44,96,100,0.72,BR,2025-01-01
452,revda,56.801,59.9303,23.9,93,100,6.42,RU,2025-01-01
453,lluta,-16.0147,-72.0142,45.99,72,94,0.92,PE,2025-01-01
454,nelson bay,-32.7167,152.15,83.08,70,100,25.99,AU,2025-01-01
455,celendin,-6.8703,-78.1517,54.41,89,99,2.08,PE,2025-01-01
456,weno,7.4515,151.8468,83.08,73,100,10.4,FM,2025-01-01
457,tokamachi,37.1333,138.7667,39.6,76,98,0.98,JP,2025-01-01
458,vila velha,-20.3297,-40.2925,75.15,95,100,4.61,BR,2025-01-01
459,namibe,-15.1961,12.1522,71.62,81,90,5.23,AO,2025-01-01
460,bwizibwera,-0.5917,30.6286,65.91,64,100,1.5,UG,2025-01-01
461,ugoofaaru,5.6667,73.0,81.82,72,100,4.38,MV,2025-01-01
462,qulsary,46.9531,54.0198,32.81,88,89,15.41,KZ,2025-01-01
463,la'ie,21.6477,-157.9253,76.39,81,1,10.0,US,2025-01-01
464,cannonvale,-20.2833,148.7,79.99,66,34,10.4,AU,2025-01-01
465,vel'sk,61.0701,42.0983,21.33,93,93,6.42,RU,2025-01-01
466,dzuunharaa,48.8523,106.4579,5.65,86,100,2.04,MN,2025-01-01
467,sinnar,13.5691,33.5672,69.04,35,0,16.73,SD,2025-01-01
468,porto novo,6.4965,2.6036,80.42,88,75,2.75,BJ,2025-01-01
469,greymouth,-42.4667,171.2,64.27,74,100,4.34,NZ,2025-01-01
470,skiathos,39.1623,23.4909,46.98,93,40,3.44,GR,2025-01-01
471,gebeit,21.0667,36.3167,54.1,70,55,5.37,SD,2025-01-01
472,nanzhang chengguanzhen,31.7839,111.8275,57.69,30,24,5.75,CN,2025-01-01
473,baki,-7.6128,110.7839,81.52,80,100,5.64,ID,2025-01-01
474,mount isa,-20.7333,139.5,103.77,9,94,9.22,AU,2025-01-01
475,copala,16.65,-98.9833,72.7,81,89,7.0,MX,2025-01-01
476,palikir - national government center,6.9248,158.1611,77.74,94,100,4.61,FM,2025-01-01
477,shingu,33.7333,135.9833,53.78,33,0,5.21,JP,2025-01-01
478,ocean city,39.2776,-74.5746,50.02,92,93,4.0,US,2025-01-01
479,kralendijk,12.15,-68.2667,78.78,83,20,10.36,BQ,2025-01-01
480,polyarnyy,69.1989,33.4478,20.88,94,100,6.17,RU,2025-01-01
481,karratha,-20.7377,116.8463,97.0,41,62,15.73,AU,2025-01-01
482,korhogo,9.45,-5.6333,66.43,24,0,4.34,CI,2025-01-01
483,kingston,17.997,-76.7936,77.95,83,20,11.5,JM,2025-01-01
484,suva,-18.1416,178.4415,80.08,78,75,4.61,FJ,2025-01-01
485,olyokminsk,60.3736,120.4264,-17.73,96,100,2.66,RU,2025-01-01
486,chui,-33.6971,-53.4616,64.78,94,45,6.17,UY,2025-01-01
487,prince albert,53.2001,-105.7677,4.95,72,100,8.05,CA,2025-01-01
488,gizo,-8.103,156.8419,84.29,73,84,4.36,SB,2025-01-01
489,coyhaique,-45.5752,-72.0662,47.59,97,88,6.17,CL,2025-01-01
490,beyneu,45.3167,55.2,36.93,90,76,18.03,KZ,2025-01-01
491,kangding,30.0513,101.9603,56.07,16,2,1.61,CN,2025-01-01
492,brokopondo,4.75,-55.1667,75.96,90,100,7.72,SR,2025-01-01
493,pandan,14.0453,124.1694,80.83,82,83,9.95,PH,2025-01-01
494,nogliki,51.8333,143.1667,-6.45,98,18,5.68,RU,2025-01-01
495,ulladulla,-35.35,150.4667,77.5,61,40,13.09,AU,2025-01-01
496,santa ana de yacuma,-13.75,-65.4333,77.38,77,100,6.02,BO,2025-01-01
497,cole harbour,44.6724,-63.4751,32.72,100,68,3.44,CA,2025-01-01
498,nizhnyaya poyma,56.1622,97.1933,16.9,83,99,7.07,RU,2025-01-01
499,el matama,16.7095,33.3565,61.63,32,0,18.52,SD,2025-01-01
500,douz,33.4663,9.0203,54.75,63,82,19.33,TN,2025-01-01
501,xiongzhou,25.1167,114.3,69.6,24,0,1.41,CN,2025-01-01
502,ciudad guayana,8.3533,-62.6528,72.73,96,16,3.83,VE,2025-01-01
503,arraial do cabo,-22.9661,-42.0278,74.17,89,81,7.05,BR,2025-01-01
504,maluso,6.543,121.8753,83.93,74,87,3.38,PH,2025-01-01
505,bathsheba,13.2167,-59.5167,79.41,61,20,13.8,BB,2025-01-01
506,souillac,-20.5167,57.5167,80.98,74,75,10.36,MU,2025-01-01
507,kazlu ruda,54.7667,23.5,33.01,78,100,20.13,LT,2025-01-01
508,taulaga,-11.0553,-171.0883,83.93,71,77,5.55,AS,2025-01-01
509,ixtapa,20.7,-105.2,70.23,82,100,1.01,MX,2025-01-01
510,masterton,-40.9597,175.6575,53.62,95,100,8.63,NZ,2025-01-01
511,misratah,32.3754,15.0925,57.22,76,71,10.98,LY,2025-01-01
512,nueva esperanza,15.2667,-87.6,71.56,99,100,0.67,HN,2025-01-01
513,miquelon,47.0975,-56.3814,40.82,95,100,19.82,PM,2025-01-01
514,borogontsy,62.6683,131.1683,-50.87,100,100,1.23,RU,2025-01-01
515,nantucket,41.2835,-70.0995,48.31,81,75,20.78,US,2025-01-01
516,chongqing,29.5628,106.5528,57.52,54,3,4.47,CN,2025-01-01
517,hammerfest,70.6634,23.6821,25.25,93,75,9.22,NO,2025-01-01
518,ippy,6.2679,21.2247,72.43,19,83,9.95,CF,2025-01-01
519,rosarito,32.3333,-117.0333,48.94,80,100,3.24,MX,2025-01-01
520,gaalkacyo,6.7697,47.4308,76.46,55,45,15.01,SO,2025-01-01
521,kismayo,-0.3582,42.5454,80.17,73,78,16.69,SO,2025-01-01
522,fort stockton,30.894,-102.8793,50.76,31,0,8.05,US,2025-01-01
523,lata,40.1629,-8.3327,37.29,76,0,4.72,PT,2025-01-01
524,cidreira,-30.1811,-50.2056,72.59,89,49,17.52,BR,2025-01-01
525,berea,41.3662,-81.8543,35.58,96,100,17.27,US,2025-01-01
526,marataizes,-21.0433,-40.8244,72.5,89,100,3.15,BR,2025-01-01
527,quibala,-10.7337,14.98,64.15,94,100,1.32,AO,2025-01-01
528,arkhangel'sk,64.5401,40.5433,26.71,100,40,8.95,RU,2025-01-01
529,vallenar,-28.5708,-70.7581,63.59,65,0,2.89,CL,2025-01-01
530,manturovo,58.3353,44.7619,19.69,91,100,9.51,RU,2025-01-01
531,mirador,-6.3708,-44.3631,75.09,85,75,2.19,BR,2025-01-01
532,morganton,35.7454,-81.6848,46.98,65,51,8.01,US,2025-01-01
533,toliara,-23.35,43.6667,88.07,59,9,6.2,MG,2025-01-01
534,zaozersk,69.4005,32.4476,20.68,95,100,5.06,RU,2025-01-01
535,northam,51.0333,-4.2167,53.8,82,100,15.99,GB,2025-01-01
536,rongelap,11.1635,166.8941,81.81,71,31,15.5,MH,2025-01-01
537,chichiriviche,10.9333,-68.2772,77.34,86,87,11.36,VE,2025-01-01
538,arar,30.9753,41.0381,44.62,100,0,6.91,SA,2025-01-01
539,phan rang-thap cham,11.5667,108.9833,77.11,77,100,4.85,VN,2025-01-01
540,lazaro cardenas,17.9583,-102.2,70.77,80,64,4.21,MX,2025-01-01
541,ta`u,-14.2336,-169.5144,83.75,73,98,7.4,AS,2025-01-01
542,thabazimbi,-24.5917,27.4116,79.47,61,99,3.02,ZA,2025-01-01
543,narasannapeta,18.4167,84.05,78.84,51,0,5.95,IN,2025-01-01
544,terra santa,-2.1042,-56.4869,74.35,86,74,2.57,BR,2025-01-01
545,alotau,-10.3069,150.4462,82.83,85,85,3.44,PG,2025-01-01
546,grenaa,56.4158,10.8783,46.62,96,100,1.99,DK,2025-01-01
547,zheleznogorsk-ilimskiy,56.5768,104.1217,9.25,94,99,5.88,RU,2025-01-01
548,tamanrasset,22.785,5.5228,57.11,21,0,8.05,DZ,2025-01-01
549,tchintabaraden,15.8969,5.7985,62.49,23,0,11.7,NE,2025-01-01
550,manado,1.487,124.8455,88.57,70,40,9.22,ID,2025-01-01
551,barcelos,41.5388,-8.6151,39.58,72,0,5.35,PT,2025-01-01
552,crane,31.3974,-102.3501,45.68,40,24,11.97,US,2025-01-01
553,hoemul-li,41.4339,129.67,34.23,42,0,4.05,KP,2025-01-01
554,tonala,20.6167,-103.2333,56.79,32,77,1.74,MX,2025-01-01
555,sangin,32.0728,64.8359,52.14,67,100,14.85,AF,2025-01-01
556,pontevico,45.2744,10.0925,32.61,85,0,3.85,IT,2025-01-01
557,bethanie,-26.4833,17.15,74.53,27,0,3.06,NA,2025-01-01
558,dieppe bay town,17.413,-62.8153,77.18,73,61,11.5,KN,2025-01-01
559,harstad,68.799,16.5293,24.15,84,70,4.92,NO,2025-01-01
560,smithers,54.7804,-127.1743,23.32,68,100,8.05,CA,2025-01-01
561,ancud,-41.8697,-73.8203,49.3,90,34,4.7,CL,2025-01-01
562,el triunfo,-1.9333,-79.9667,75.24,85,97,6.33,EC,2025-01-01
563,kamaishi,39.2667,141.8833,36.37,60,9,11.45,JP,2025-01-01
564,tofol,5.3248,163.0078,83.98,74,100,3.44,FM,2025-01-01
565,shenkursk,62.1091,42.896,25.03,90,95,6.42,RU,2025-01-01
566,koungheul,13.9833,-14.8,70.74,23,0,10.49,SN,2025-01-01
567,baukau,51.5526,7.2042,42.66,84,100,17.67,DE,2025-01-01
568,camayenne,9.535,-13.6878,75.29,83,1,2.3,GN,2025-01-01
569,petauke,-14.2426,31.3253,70.3,84,100,5.01,ZM,2025-01-01
570,leesburg,39.1157,-77.5636,46.85,96,64,11.43,US,2025-01-01
571,az zawr,29.4425,48.2747,58.01,49,0,17.52,KW,2025-01-01
572,isangel,-19.55,169.2667,79.47,76,72,11.14,VU,2025-01-01
