City_ID,City,Lat,Lng,Max Temp,Humidity,Cloudiness,Wind Speed,Country,Date
0,edinburgh of the seven seas,-37.0676,-12.3116,62.82,93,95,25.93,SH,2024-12-30
1,grytviken,-54.2811,-36.5092,43.48,79,93,10.69,GS,2024-12-30
2,atafu village,-8.5421,-172.5159,83.05,74,99,7.67,TK,2024-12-30
3,bredasdorp,-34.5322,20.0403,66.02,60,5,15.59,ZA,2024-12-30
4,caucasia,7.9865,-75.1935,73.74,95,85,2.73,CO,2024-12-30
5,olonkinbyen,70.9221,-8.7187,22.14,65,100,26.78,SJ,2024-12-30
6,oruro,-17.9833,-67.15,48.96,63,97,7.92,BO,2024-12-30
7,kodinsk,58.6881,99.1844,14.04,94,100,9.08,RU,2024-12-30
8,coeur d'alene,47.6777,-116.7805,34.23,96,100,4.61,US,2024-12-30
9,happy valley-goose bay,53.3168,-60.3315,32.31,100,100,11.5,CA,2024-12-30
10,waitangi,-43.9535,-176.5597,61.83,98,100,5.01,NZ,2024-12-30
11,afaahiti,-17.75,-149.2833,79.47,77,100,3.76,PF,2024-12-30
12,tari,-11.1105,14.3559,65.79,96,100,2.15,AO,2024-12-30
13,bhamo,24.2667,97.2333,79.0,43,0,2.51,MM,2024-12-30
14,sisimiut,66.9395,-53.6735,8.89,67,1,10.54,GL,2024-12-30
15,las vegas,36.175,-115.1372,53.96,35,0,5.75,US,2024-12-30
16,thompson,55.7435,-97.8558,23.16,100,100,4.61,CA,2024-12-30
17,tofol,5.3248,163.0078,82.24,77,37,11.52,FM,2024-12-30
18,georgetown,5.4112,100.3354,87.75,52,20,8.05,MY,2024-12-30
19,hermanus,-34.4187,19.2345,65.8,71,1,14.23,ZA,2024-12-30
20,ribeira grande,38.5167,-28.7,63.77,92,100,18.99,PT,2024-12-30
21,port-aux-francais,-49.35,70.2167,39.67,68,70,27.58,TF,2024-12-30
22,margaret river,-33.95,115.0667,81.14,39,54,15.73,AU,2024-12-30
23,vorgashor,67.5833,63.95,18.59,90,100,15.79,RU,2024-12-30
24,iqaluit,63.7506,-68.5145,-13.27,69,0,3.44,CA,2024-12-30
25,west island,-12.1568,96.8225,84.18,74,75,6.91,CC,2024-12-30
26,la plata,-34.9215,-57.9545,68.25,79,15,8.21,AR,2024-12-30
27,nuuk,64.1835,-51.7216,16.74,57,0,4.79,GL,2024-12-30
28,albany,42.6001,-73.9662,44.46,67,86,1.01,US,2024-12-30
29,praia da vitoria,38.7333,-27.0667,62.85,88,75,19.91,PT,2024-12-30
30,ebon,4.582,168.6964,81.1,82,99,12.75,MH,2024-12-30
31,yarmouth,41.7057,-70.2286,45.12,91,0,8.99,US,2024-12-30
32,izazi,-7.2,35.7333,72.52,80,78,3.76,TZ,2024-12-30
33,adamstown,-25.066,-130.1015,72.86,89,100,12.75,PN,2024-12-30
34,maputo,-25.9653,32.5892,76.68,94,40,2.3,MZ,2024-12-30
35,bethel,41.3712,-73.414,46.49,70,0,4.61,US,2024-12-30
36,mata-utu,-13.2816,-176.1745,82.8,77,100,7.29,WF,2024-12-30
37,stanley,54.868,-1.6985,48.22,79,40,8.05,GB,2024-12-30
38,mount gambier,-37.8333,140.7667,73.35,45,2,10.8,AU,2024-12-30
39,dabakala,8.3667,-4.4333,71.78,22,1,3.42,CI,2024-12-30
40,keflavik,64.0049,-22.5624,25.23,74,0,14.97,IS,2024-12-30
41,punta arenas,-53.15,-70.9167,53.71,87,100,8.05,CL,2024-12-30
42,puerto ayora,-0.7393,-90.3518,73.54,98,14,4.43,EC,2024-12-30
43,ushuaia,-54.8,-68.3,47.86,93,100,4.61,AR,2024-12-30
44,concepcion del oro,24.6333,-101.4167,49.28,21,1,1.32,MX,2024-12-30
45,kudahuvadhoo,2.6708,72.8944,81.09,71,13,7.05,MV,2024-12-30
46,az zulfi,26.2995,44.8154,53.94,48,100,5.44,SA,2024-12-30
47,mulanje,-16.0316,35.5,75.92,77,82,1.81,MW,2024-12-30
48,blackmans bay,-43.0167,147.3167,70.52,45,69,10.09,AU,2024-12-30
49,mehtar lam,34.6714,70.2094,56.19,13,0,2.53,AF,2024-12-30
50,mancio lima,-7.6142,-72.8958,75.27,100,100,2.3,BR,2024-12-30
51,dudinka,69.4058,86.1778,2.66,91,100,22.37,RU,2024-12-30
52,kapa'a,22.0752,-159.319,77.32,79,40,14.97,US,2024-12-30
53,chiras,35.4167,65.9823,23.74,69,6,10.4,AF,2024-12-30
54,badger,64.8,-147.5333,-15.02,76,0,0.0,US,2024-12-30
55,vrsac,45.1167,21.3036,28.22,100,100,1.14,RS,2024-12-30
56,hamilton,39.1834,-84.5333,48.42,81,100,9.22,US,2024-12-30
57,hawaiian paradise park,19.5933,-154.9731,74.71,89,0,6.91,US,2024-12-30
58,chinde,26.8212,87.7095,70.48,45,0,4.92,NP,2024-12-30
59,jayapura,-2.5333,140.7,92.59,63,84,2.08,ID,2024-12-30
60,sundsvall,62.3913,17.3063,10.36,92,20,3.44,SE,2024-12-30
61,petropavlovsk-kamchatsky,53.0452,158.6483,19.99,45,75,6.71,RU,2024-12-30
62,al kharijah,25.4514,30.5464,48.16,56,18,7.05,EG,2024-12-30
63,fort bragg,35.139,-79.006,46.8,92,0,0.0,US,2024-12-30
64,novodvinsk,64.4165,40.8122,24.55,95,100,13.38,RU,2024-12-30
65,antofagasta,-23.65,-70.4,65.48,83,78,2.75,CL,2024-12-30
66,alofi,-19.0595,-169.9187,82.29,74,40,8.05,NU,2024-12-30
67,fauske,67.2588,15.3918,29.95,81,97,4.81,NO,2024-12-30
68,puerto natales,-51.7236,-72.4875,52.77,87,100,3.29,CL,2024-12-30
69,nagqu,31.5,92.0,20.52,29,15,7.4,CN,2024-12-30
70,carutapera,-1.195,-46.02,78.31,88,53,6.4,BR,2024-12-30
71,jasper,37.2001,-94.3502,48.38,69,0,19.57,US,2024-12-30
72,colonia,50.9333,6.95,32.65,90,100,4.61,DE,2024-12-30
73,kruisfontein,-34.0033,24.7314,66.34,79,33,13.44,ZA,2024-12-30
74,tazovsky,67.4667,78.7,12.85,93,100,14.94,RU,2024-12-30
75,iskateley,67.6803,53.1512,26.13,84,95,23.85,RU,2024-12-30
76,cabo san lucas,22.8909,-109.9124,71.91,39,0,9.22,MX,2024-12-30
77,galesong,-5.3166,119.3661,84.33,70,100,10.71,ID,2024-12-30
78,kingston,17.997,-76.7936,77.95,83,20,3.44,JM,2024-12-30
79,yellowknife,62.456,-114.3525,0.12,85,100,18.41,CA,2024-12-30
80,quelimane,-17.8786,36.8883,76.95,88,20,0.0,MZ,2024-12-30
81,saldanha,-33.0117,17.9442,57.25,76,14,1.25,ZA,2024-12-30
82,carlsbad,33.1581,-117.3506,55.35,91,75,1.99,US,2024-12-30
83,port mathurin,-19.6833,63.4167,77.72,70,15,15.19,MU,2024-12-30
84,port alfred,-33.5906,26.891,71.19,86,94,1.99,ZA,2024-12-30
85,kebili,33.7044,8.969,51.4,89,34,12.44,TN,2024-12-30
86,orikhiv,47.5673,35.7858,30.6,91,25,8.81,UA,2024-12-30
87,port elizabeth,-33.918,25.5701,71.31,91,75,8.05,ZA,2024-12-30
88,san sebastian de la gomera,28.0916,-17.1133,64.76,39,0,1.14,ES,2024-12-30
89,talnakh,69.4865,88.3972,-2.09,96,94,12.37,RU,2024-12-30
90,mossel bay,-34.1831,22.146,64.33,71,28,14.29,ZA,2024-12-30
91,tiksi,71.6872,128.8694,-31.2,98,96,0.63,RU,2024-12-30
92,lares,18.2947,-66.8771,67.66,99,88,4.5,PR,2024-12-30
93,salinas,36.6777,-121.6555,50.29,86,0,3.44,US,2024-12-30
94,heilbad heiligenstadt,51.3833,10.1333,30.67,95,8,11.01,DE,2024-12-30
95,baganga,7.5739,126.56,83.79,69,96,6.31,PH,2024-12-30
96,mogocha,53.7333,119.7667,4.68,77,5,2.24,RU,2024-12-30
97,nizhniy ingash,56.2,96.53,14.72,91,100,12.59,RU,2024-12-30
98,walvis bay,-22.9575,14.5053,61.75,94,100,10.36,NA,2024-12-30
99,enewetak,11.3474,162.3373,81.34,78,40,15.03,MH,2024-12-30
100,semenivka,52.1783,32.5818,34.81,91,100,15.43,UA,2024-12-30
101,alice springs,-23.7,133.8833,98.15,10,55,13.8,AU,2024-12-30
102,mollendo,-17.0231,-72.0147,66.52,85,100,5.53,PE,2024-12-30
103,baiao,-2.7906,-49.6717,72.72,96,88,1.05,BR,2024-12-30
104,ulsteinvik,62.3432,5.8487,32.31,71,100,8.01,NO,2024-12-30
105,chonchi,-42.6128,-73.8092,49.12,82,42,4.74,CL,2024-12-30
106,vila velha,-20.3297,-40.2925,73.94,95,20,0.0,BR,2024-12-30
107,akureyri,65.6835,-18.0878,-5.87,84,0,6.91,IS,2024-12-30
108,san patricio,28.017,-97.5169,66.15,58,0,7.47,US,2024-12-30
109,bilibino,68.0546,166.4372,-10.82,84,69,6.06,RU,2024-12-30
110,hasaki,35.7333,140.8333,56.55,50,70,17.87,JP,2024-12-30
111,lata,40.1629,-8.3327,37.81,90,4,3.67,PT,2024-12-30
112,anadyr,64.75,177.4833,21.7,79,40,44.74,RU,2024-12-30
113,yelizovo,53.1873,158.3805,21.34,45,75,6.71,RU,2024-12-30
114,sandnessjoen,66.0217,12.6316,30.42,64,75,11.5,NO,2024-12-30
115,palmer,42.1584,-72.3287,44.26,74,75,6.91,US,2024-12-30
116,ivdel',60.6911,60.4206,26.89,82,100,14.14,RU,2024-12-30
117,udachny,66.4167,112.4,-29.99,100,100,0.45,RU,2024-12-30
118,ziro,27.6333,93.8333,59.95,40,2,0.58,IN,2024-12-30
119,wailua homesteads,22.0669,-159.378,75.99,82,40,14.97,US,2024-12-30
120,tamanrasset,22.785,5.5228,53.51,22,0,13.8,DZ,2024-12-30
121,ilulissat,69.2167,-51.1,14.02,41,0,14.97,GL,2024-12-30
122,changyon,38.2508,125.0961,35.1,42,0,14.58,KP,2024-12-30
123,charters towers,-20.1,146.2667,94.86,32,5,3.87,AU,2024-12-30
124,weno,7.4515,151.8468,83.34,75,100,16.53,FM,2024-12-30
125,miri,4.4148,114.0089,87.94,74,40,11.5,MY,2024-12-30
126,mikuni,36.2171,136.1519,48.4,55,99,26.24,JP,2024-12-30
127,santo antonio,-6.3106,-35.4789,74.77,87,18,5.39,BR,2024-12-30
128,whitehorse,60.7161,-135.0538,9.37,85,75,5.75,CA,2024-12-30
129,makoua,0.0069,15.6333,73.8,84,83,1.9,CG,2024-12-30
130,tsiombe,-25.3,45.4833,88.57,46,0,6.44,MG,2024-12-30
131,waingapu,-9.6567,120.2641,86.38,67,98,8.16,ID,2024-12-30
132,banjar,-8.19,114.9675,81.52,82,100,4.72,ID,2024-12-30
133,qamdo,31.1667,97.2333,28.4,25,0,1.7,CN,2024-12-30
134,komatipoort,-25.4332,31.9548,78.75,76,36,2.95,ZA,2024-12-30
135,gilmer,32.7287,-94.9424,53.98,59,0,7.05,US,2024-12-30
136,istaravshan,39.9142,69.0033,38.95,70,39,1.88,TJ,2024-12-30
137,qaqortoq,60.7167,-46.0333,4.33,68,15,7.16,GL,2024-12-30
138,toliara,-23.35,43.6667,84.15,64,2,3.27,MG,2024-12-30
139,igarka,67.4667,86.5833,-0.15,94,100,19.3,RU,2024-12-30
140,socorro,31.6546,-106.3033,65.3,12,0,8.05,US,2024-12-30
141,ola,59.5833,151.2833,-7.04,85,57,7.49,RU,2024-12-30
142,boajibu,8.1833,-11.3333,64.2,35,0,2.26,SL,2024-12-30
143,deltebre,40.7499,0.7868,50.18,54,0,6.76,ES,2024-12-30
144,constantia,44.1833,28.65,32.7,83,0,7.81,RO,2024-12-30
145,santiago de cuba,20.0247,-75.8219,73.51,83,20,4.61,CU,2024-12-30
146,mount isa,-20.7333,139.5,103.77,9,0,6.91,AU,2024-12-30
147,tazacorte,28.629,-17.9293,62.15,71,40,8.01,ES,2024-12-30
148,sinabang,2.4803,96.3801,84.25,69,97,0.83,ID,2024-12-30
149,bubaque,11.2833,-15.8333,78.82,64,41,11.3,GW,2024-12-30
150,argo,37.6333,22.7333,45.7,55,0,3.98,GR,2024-12-30
151,canton,23.1167,113.25,71.73,27,0,9.17,CN,2024-12-30
152,aasiaat,68.7098,-52.8699,-8.97,84,2,5.99,GL,2024-12-30
153,isafjordur,66.0755,-23.124,19.31,73,100,13.85,IS,2024-12-30
154,jamestown,42.097,-79.2353,33.44,99,0,5.75,US,2024-12-30
155,coahuayana de hidalgo,18.7,-103.6583,67.95,92,90,4.09,MX,2024-12-30
156,reggane,26.7158,0.1714,50.61,45,45,9.51,DZ,2024-12-30
157,vallenar,-28.5708,-70.7581,62.58,75,0,1.7,CL,2024-12-30
158,gemena,3.25,19.7667,69.62,43,55,3.44,CD,2024-12-30
159,katsuura,35.1333,140.3,57.72,56,80,27.89,JP,2024-12-30
160,tateyama,34.9833,139.8667,57.87,54,70,31.07,JP,2024-12-30
161,chui,-33.6971,-53.4616,62.94,94,59,5.77,UY,2024-12-30
162,kodiak,57.79,-152.4072,38.71,93,100,27.63,US,2024-12-30
163,vadso,70.0744,29.7487,32.16,86,40,11.5,NO,2024-12-30
164,kununurra,-15.7667,128.7333,98.58,44,18,4.61,AU,2024-12-30
165,carnarvon,-24.8667,113.6333,87.08,58,62,13.44,AU,2024-12-30
166,zavodoukovsk,56.5042,66.5515,11.37,90,52,14.52,RU,2024-12-30
167,uniao,-4.5858,-42.8642,74.57,91,73,4.32,BR,2024-12-30
168,severo-yeniseyskiy,60.3725,93.0408,4.98,96,100,4.45,RU,2024-12-30
169,bamboo flat,11.7,92.7167,84.29,79,75,11.5,IN,2024-12-30
170,morondava,-20.2833,44.2833,82.24,70,70,3.4,MG,2024-12-30
171,port lincoln,-34.7333,135.8667,74.37,52,2,10.83,AU,2024-12-30
172,lebu,-37.6167,-73.65,55.06,77,64,14.81,CL,2024-12-30
173,hilo,19.7297,-155.09,74.93,86,0,6.91,US,2024-12-30
174,itoman,26.1247,127.6694,68.4,52,75,20.71,JP,2024-12-30
175,uturoa,-16.7333,-151.4333,82.36,72,34,5.91,PF,2024-12-30
176,invercargill,-46.4,168.35,60.03,71,10,7.0,NZ,2024-12-30
177,novokhopersk,51.0969,41.6252,29.93,92,100,10.58,RU,2024-12-30
178,george town,5.4112,100.3354,87.75,52,20,8.05,MY,2024-12-30
179,woolgoolga,-30.1106,153.2007,78.67,63,48,11.5,AU,2024-12-30
180,floro,61.5996,5.0328,31.96,55,20,12.66,NO,2024-12-30
181,al qubbah,32.7616,22.2424,44.44,80,10,10.02,LY,2024-12-30
182,preobrazheniye,42.9019,133.9064,27.97,43,24,7.38,RU,2024-12-30
183,krems an der donau,48.4092,15.6142,27.57,99,21,3.87,AT,2024-12-30
184,bakal,54.9417,58.8083,22.8,86,74,10.76,RU,2024-12-30
185,tokar,18.4254,37.729,73.27,61,100,17.87,SD,2024-12-30
186,gizo,-8.103,156.8419,84.74,68,42,4.68,SB,2024-12-30
187,papatowai,-46.5619,169.4708,57.36,74,37,6.96,NZ,2024-12-30
188,ontario,34.0633,-117.6509,55.13,80,40,4.61,US,2024-12-30
189,erftstadt,50.8167,6.7667,32.2,93,100,3.44,DE,2024-12-30
190,freetown,8.484,-13.2299,75.15,78,3,2.3,SL,2024-12-30
191,korla,41.7597,86.1469,16.66,71,90,1.43,CN,2024-12-30
192,balaklava,44.5,33.6,42.93,80,54,6.71,UA,2024-12-30
193,iaciara,-14.0958,-46.6317,69.1,96,97,0.45,BR,2024-12-30
194,pundong,-7.9522,110.3486,85.6,61,64,13.82,ID,2024-12-30
195,saipan,15.1355,145.701,84.9,79,40,13.8,MP,2024-12-30
196,verkhnevilyuysk,63.4453,120.3167,-50.75,100,93,1.7,RU,2024-12-30
197,bethanie,-26.4833,17.15,66.4,42,0,1.43,NA,2024-12-30
198,murzuq,25.9155,13.9184,47.93,64,67,9.64,LY,2024-12-30
199,bandarbeyla,9.4942,50.8122,75.36,62,30,16.11,SO,2024-12-30
200,alice town,25.7167,-79.3,75.11,83,1,14.36,BS,2024-12-30
201,sitka,57.0531,-135.33,35.49,64,0,5.75,US,2024-12-30
202,fale old settlement,-9.3852,-171.2468,83.23,74,44,8.43,TK,2024-12-30
203,shalqar,47.8333,59.6,17.42,93,48,1.23,KZ,2024-12-30
204,skowhegan,44.7651,-69.7192,38.16,99,60,2.59,US,2024-12-30
205,awjilah,29.1081,21.2869,48.76,69,89,5.91,LY,2024-12-30
206,taoudenni,22.6783,-3.9836,51.87,41,33,10.02,ML,2024-12-30
207,lobujya,27.95,86.8167,15.8,46,0,2.68,NP,2024-12-30
208,mejit,10.2753,170.8646,80.98,77,33,15.39,MH,2024-12-30
209,longyearbyen,78.2186,15.6401,4.84,72,0,12.66,SJ,2024-12-30
210,buka,40.8108,69.1986,42.21,86,98,1.9,UZ,2024-12-30
211,santa elena de uairen,4.6167,-61.1333,66.04,94,100,2.19,VE,2024-12-30
212,new norfolk,-42.7826,147.0587,70.72,20,66,2.62,AU,2024-12-30
213,belmonte,-15.8631,-38.8828,77.52,81,100,4.72,BR,2024-12-30
214,louga,58.7372,29.8453,30.97,78,25,9.93,RU,2024-12-30
215,lompoc,34.6391,-120.4579,50.41,88,0,6.91,US,2024-12-30
216,richards bay,-28.783,32.0377,79.43,76,92,13.51,ZA,2024-12-30
217,yuzhno-kurilsk,44.0306,145.8556,27.14,93,100,14.88,RU,2024-12-30
218,nemuro,43.3236,145.575,30.92,93,100,25.57,JP,2024-12-30
219,pyay,18.8167,95.2167,82.83,47,93,7.96,MM,2024-12-30
220,avarua,-21.2078,-159.775,78.85,94,100,2.3,CK,2024-12-30
221,ciudad bolivar,8.1222,-63.5497,76.55,79,92,10.65,VE,2024-12-30
222,hadibu,12.65,54.0333,74.88,66,72,8.16,YE,2024-12-30
223,susuman,62.7833,148.1667,-18.56,99,100,2.28,RU,2024-12-30
224,katsuren-haebaru,26.3369,127.8719,68.4,55,75,16.11,JP,2024-12-30
225,puttalam,8.0362,79.8283,82.11,78,94,16.06,LK,2024-12-30
226,urumqi,43.801,87.6005,7.75,72,59,4.47,CN,2024-12-30
227,gallup,35.5281,-108.7426,26.44,39,0,0.0,US,2024-12-30
228,saint-philippe,-21.3585,55.7679,80.04,77,45,5.46,RE,2024-12-30
229,el granada,37.5027,-122.4694,51.85,82,0,5.75,US,2024-12-30
230,cobija,-11.0267,-68.7692,73.92,85,91,2.06,BO,2024-12-30
231,tinajo,29.0788,-13.7081,58.08,77,0,8.05,ES,2024-12-30
232,aleg,17.0481,-13.9209,71.02,23,0,11.07,MR,2024-12-30
233,bemidji,47.4736,-94.8803,25.05,100,100,6.91,US,2024-12-30
234,auki,-8.7676,160.7034,83.68,73,64,3.13,SB,2024-12-30
235,hami,42.8,93.45,18.27,45,87,5.1,CN,2024-12-30
236,kiunga,-6.1219,141.2906,88.12,54,100,3.51,PG,2024-12-30
237,port hedland,-20.3167,118.5667,104.05,24,29,13.8,AU,2024-12-30
238,utrik,11.2278,169.8474,80.24,79,71,15.03,MH,2024-12-30
239,tura,25.5198,90.2201,74.62,38,0,2.64,IN,2024-12-30
240,kish,26.5578,54.0194,70.07,78,20,0.0,IR,2024-12-30
241,antsiranana,-12.2787,49.2917,81.52,74,98,2.24,MG,2024-12-30
242,isangel,-19.55,169.2667,78.53,69,99,8.25,VU,2024-12-30
243,port saint john's,-31.6229,29.5448,77.79,87,98,16.84,ZA,2024-12-30
244,sabang,5.8933,95.3214,80.85,78,100,13.71,ID,2024-12-30
245,djibo,14.1022,-1.6306,65.53,15,0,9.82,BF,2024-12-30
246,tolanaro,-25.0319,46.9987,84.56,59,1,12.8,MG,2024-12-30
247,zhangzhou,24.5133,117.6556,70.83,35,0,5.75,CN,2024-12-30
248,menongue,-14.6585,17.691,64.45,91,96,4.21,AO,2024-12-30
249,newman,37.3138,-121.0208,45.05,78,100,1.99,US,2024-12-30
250,santo antonio do ica,-3.1022,-67.9397,73.06,99,100,1.79,BR,2024-12-30
251,lu-uk,5.9684,121.3122,82.15,77,93,2.91,PH,2024-12-30
252,novaya igirma,57.1334,103.9112,14.7,90,100,8.9,RU,2024-12-30
253,zheleznogorsk-ilimskiy,56.5768,104.1217,13.48,94,100,8.68,RU,2024-12-30
254,hirara,24.8,125.2833,68.27,60,75,25.32,JP,2024-12-30
255,klyuchi,52.2667,79.1667,5.41,96,74,6.31,RU,2024-12-30
256,flying fish cove,-10.4217,105.6791,76.68,94,100,11.5,CX,2024-12-30
257,st. john's,47.5649,-52.7093,33.98,94,100,3.44,CA,2024-12-30
258,korsakov,46.6328,142.7813,21.04,73,100,8.19,RU,2024-12-30
259,polyarnyy,69.1989,33.4478,32.77,83,100,25.72,RU,2024-12-30
260,saint-gaudens,43.0833,0.6667,39.88,62,0,3.94,FR,2024-12-30
261,afyonkarahisar,38.75,30.6667,28.18,91,47,3.02,TR,2024-12-30
262,vila franca do campo,37.7167,-25.4333,64.89,99,100,17.54,PT,2024-12-30
263,karymskoye,51.6167,114.35,11.79,83,68,5.82,RU,2024-12-30
264,glace bay,46.1969,-59.957,39.09,97,75,12.66,CA,2024-12-30
265,savastepe,39.3832,27.6561,36.66,92,47,5.91,TR,2024-12-30
266,san luis de la loma,17.2706,-100.8939,74.17,69,38,6.31,MX,2024-12-30
267,hunchun,42.8675,130.3581,25.93,37,0,14.2,CN,2024-12-30
268,ratnagiri,16.9833,73.3,85.82,41,1,7.07,IN,2024-12-30
269,revda,56.801,59.9303,22.95,83,77,15.93,RU,2024-12-30
270,port blair,11.6667,92.75,84.24,79,75,11.5,IN,2024-12-30
271,bengkulu,-3.8004,102.2655,84.13,68,65,8.37,ID,2024-12-30
272,ancud,-41.8697,-73.8203,50.27,74,14,8.3,CL,2024-12-30
273,prabumulih,-3.45,104.25,82.98,74,97,5.66,ID,2024-12-30
274,kerikeri,-35.2268,173.9474,71.91,70,19,10.0,NZ,2024-12-30
275,santa rosa misiones,-26.8667,-56.85,70.36,59,6,1.36,PY,2024-12-30
276,safford,32.834,-109.7076,50.92,27,0,4.61,US,2024-12-30
277,carloforte,39.145,8.3058,51.53,79,5,7.36,IT,2024-12-30
278,namanga,-2.5433,36.7905,68.18,73,26,4.74,KE,2024-12-30
279,el reno,35.5323,-97.955,51.84,50,0,18.41,US,2024-12-30
280,nueva helvecia,-34.3,-57.2333,66.6,74,2,10.42,UY,2024-12-30
281,roma,43.2128,-75.4557,42.69,75,100,10.36,US,2024-12-30
282,aldan,58.6031,125.3894,2.1,95,100,4.68,RU,2024-12-30
283,wotho,10.1657,166.0102,81.52,75,9,17.72,MH,2024-12-30
284,maumere,-8.6199,122.2111,84.24,77,100,0.76,ID,2024-12-30
285,kingscliff,-28.2667,153.5667,80.4,69,75,14.97,AU,2024-12-30
286,tralee,52.2704,-9.7026,52.38,83,100,18.59,IE,2024-12-30
287,shihezi,44.3,86.0333,15.8,77,50,2.37,CN,2024-12-30
288,touros,-5.1989,-35.4608,79.03,79,76,11.79,BR,2024-12-30
289,hithadhoo,-0.6,73.0833,80.02,73,66,11.16,MV,2024-12-30
290,hollidaysburg,40.4273,-78.3889,41.09,68,0,8.05,US,2024-12-30
291,kupang,-10.1667,123.5833,86.58,79,40,6.91,ID,2024-12-30
292,fortuna,40.5982,-124.1573,41.92,96,0,3.04,US,2024-12-30
293,ust'-ilimsk,58.0006,102.6619,14.43,94,100,9.4,RU,2024-12-30
294,namibe,-15.1961,12.1522,72.48,78,91,5.41,AO,2024-12-30
295,saint-francois,46.4154,3.9054,26.04,100,100,2.3,FR,2024-12-30
296,joshimath,30.5667,79.5667,49.8,29,6,3.0,IN,2024-12-30
297,arauco,-37.2463,-73.3175,54.25,95,39,6.49,CL,2024-12-30
298,shingu,33.7333,135.9833,54.52,53,25,15.9,JP,2024-12-30
299,tukrah,32.5341,20.5791,55.83,63,95,4.34,LY,2024-12-30
300,tommot,58.9564,126.2925,-0.89,96,100,2.77,RU,2024-12-30
301,abepura,-2.6333,140.5833,92.21,55,20,3.44,ID,2024-12-30
302,banfora,10.6333,-4.7667,70.75,16,6,6.35,BF,2024-12-30
303,pisco,-13.7,-76.2167,70.02,83,0,11.5,PE,2024-12-30
304,kasongo-lunda,-6.4667,16.8167,69.01,99,100,1.03,CD,2024-12-30
305,howrah,22.5892,88.3103,68.0,73,40,9.22,IN,2024-12-30
306,alo,6.5486,4.2686,74.98,92,16,2.44,NG,2024-12-30
307,kapoeta,4.7717,33.5903,80.8,26,70,2.08,SS,2024-12-30
308,vorkuta,67.5,64.0,19.02,87,100,16.02,RU,2024-12-30
309,zayed city,24.3768,54.589,71.01,94,40,5.75,AE,2024-12-30
310,fuerte olimpo,-21.0415,-57.8738,74.57,39,1,3.89,PY,2024-12-30
311,kirkwall,58.9848,-2.9587,33.85,93,100,31.07,GB,2024-12-30
312,devils lake,48.1128,-98.8651,22.98,86,100,11.5,US,2024-12-30
313,ubari,26.5921,12.7805,51.53,47,96,11.74,LY,2024-12-30
314,luderitz,-26.6481,15.1594,62.37,89,0,9.42,NA,2024-12-30
315,rongelap,11.1635,166.8941,81.25,74,10,18.45,MH,2024-12-30
316,marcos juarez,-32.6978,-62.1067,71.69,43,3,6.8,AR,2024-12-30
317,trinidad,-14.8333,-64.9,74.16,74,61,4.34,BO,2024-12-30
318,nova vicosa,-17.8919,-39.3719,74.93,89,100,8.21,BR,2024-12-30
319,puerto plata,19.7934,-70.6884,68.74,93,83,3.47,DO,2024-12-30
320,shimanovsk,52.0,127.7,-1.93,90,84,2.59,RU,2024-12-30
321,aykhal,66.0,111.5,-19.71,100,98,4.41,RU,2024-12-30
322,hoemul-li,41.4339,129.67,32.59,35,2,4.32,KP,2024-12-30
323,kapuskasing,49.4169,-82.4331,30.29,93,100,12.66,CA,2024-12-30
324,la passe,45.5549,-0.8967,38.66,87,0,6.64,FR,2024-12-30
325,gufeng,26.9083,118.9819,57.13,45,0,3.49,CN,2024-12-30
326,geraldton,-28.7667,114.6,81.01,74,75,4.61,AU,2024-12-30
327,puerto aysen,-45.4,-72.7,45.82,99,100,5.06,CL,2024-12-30
328,saint peters,38.8003,-90.6265,50.41,95,100,4.0,US,2024-12-30
329,taxisco,14.0708,-90.4631,72.05,87,100,2.73,GT,2024-12-30
330,swakopmund,-22.6833,14.5333,61.97,91,6,4.14,NA,2024-12-30
331,pedro munoz,39.4041,-2.9223,38.3,83,0,8.84,ES,2024-12-30
332,puerto carreno,6.189,-67.4859,80.49,66,62,3.96,CO,2024-12-30
333,axim,4.8699,-2.2405,78.71,86,87,3.11,GH,2024-12-30
334,mokrous,51.2333,47.5167,24.4,95,54,13.11,RU,2024-12-30
335,angra do heroismo,38.65,-27.2167,63.21,88,75,20.74,PT,2024-12-30
336,tabou,4.423,-7.3528,79.12,86,25,5.66,CI,2024-12-30
337,nova sintra,14.8667,-24.7167,77.05,77,70,10.29,CV,2024-12-30
338,sao jose da coroa grande,-8.8978,-35.1478,76.91,81,24,8.37,BR,2024-12-30
339,katabu,-4.9333,122.5167,89.42,59,98,5.01,ID,2024-12-30
340,cape canaveral,28.4058,-80.6048,68.07,95,0,6.91,US,2024-12-30
341,codrington,-38.2667,141.9667,66.87,64,4,14.5,AU,2024-12-30
342,al jawf,29.5,38.75,43.12,71,5,3.51,SA,2024-12-30
343,mariehamn,60.0973,19.9348,28.26,93,0,4.61,AX,2024-12-30
344,nar'yan-mar,67.6713,53.087,26.01,85,94,23.98,RU,2024-12-30
345,anthony,32.004,-106.6058,59.81,16,0,5.75,US,2024-12-30
346,ushtobe,45.2514,77.9838,34.57,100,100,15.19,KZ,2024-12-30
347,westport,41.1415,-73.3579,48.81,69,0,8.05,US,2024-12-30
348,vilyuchinsk,52.9306,158.4028,21.47,76,98,10.16,RU,2024-12-30
349,purwakarta,-6.5569,107.4433,87.49,61,99,12.91,ID,2024-12-30
350,ketchikan,55.3422,-131.6461,35.35,89,100,3.0,US,2024-12-30
351,inari,68.906,27.0288,24.67,91,100,5.3,FI,2024-12-30
352,lospalos,-8.5186,127.0025,74.08,92,100,4.56,TL,2024-12-30
353,aketi,2.7388,23.7833,67.08,51,49,1.66,CD,2024-12-30
354,santa rosalia,27.3167,-112.2833,63.61,38,0,6.87,MX,2024-12-30
355,grand falls-windsor,48.9332,-55.6649,31.5,90,100,4.63,CA,2024-12-30
356,balikpapan,-1.2675,116.8289,83.39,70,20,3.44,ID,2024-12-30
357,gevas,38.2968,43.1083,29.8,90,100,1.14,TR,2024-12-30
358,cabedelo,-6.9811,-34.8339,79.47,80,50,11.77,BR,2024-12-30
359,posto fiscal rolim de moura,-13.0833,-62.2667,73.76,96,100,3.31,BR,2024-12-30
360,corumba,-19.0092,-57.6533,71.96,49,2,0.51,BR,2024-12-30
361,t'ongch'on-up,38.9539,127.8917,38.82,28,0,7.74,KP,2024-12-30
362,lerwick,60.1545,-1.1494,34.12,71,100,20.78,GB,2024-12-30
363,kismayo,-0.3582,42.5454,80.49,75,19,19.62,SO,2024-12-30
364,naifaru,5.4444,73.3657,82.0,69,92,4.03,MV,2024-12-30
365,luganville,-15.5333,167.1667,80.28,85,100,4.45,VU,2024-12-30
366,ravar,31.2656,56.8055,53.46,58,85,1.72,IR,2024-12-30
367,jardim,-21.4803,-56.1381,71.87,50,0,2.39,BR,2024-12-30
368,cidreira,-30.1811,-50.2056,71.2,84,80,13.71,BR,2024-12-30
369,ust-nera,64.5667,143.2,-21.32,99,100,3.31,RU,2024-12-30
370,yamada,39.4667,141.95,39.65,91,85,4.68,JP,2024-12-30
371,east london,-33.0153,27.9116,72.54,88,75,16.11,ZA,2024-12-30
372,phalodi,27.1333,72.3667,65.84,28,7,6.76,IN,2024-12-30
373,riachao,-7.3619,-46.6172,72.21,95,57,4.05,BR,2024-12-30
374,san andres,12.5847,-81.7006,82.42,78,20,4.61,CO,2024-12-30
375,torata,-17.0769,-70.8433,59.02,68,99,2.28,PE,2024-12-30
376,kushiro,42.975,144.3747,25.75,93,100,13.8,JP,2024-12-30
377,tindouf,27.6711,-8.1474,45.66,52,0,6.76,DZ,2024-12-30
378,mersa matruh,31.3525,27.2453,53.8,82,40,6.91,EG,2024-12-30
379,tobol,52.6844,62.5794,10.18,96,15,9.28,KZ,2024-12-30
380,hinton,53.4001,-117.5857,13.44,98,100,2.39,CA,2024-12-30
381,wewak,-3.5534,143.6268,84.07,73,71,3.8,PG,2024-12-30
382,kibre mengist,5.8833,38.9833,59.07,37,17,3.56,ET,2024-12-30
383,inhambane,-23.865,35.3833,78.78,94,40,0.0,MZ,2024-12-30
384,suez,29.9737,32.5263,49.96,79,3,3.6,EG,2024-12-30
385,arafat,39.0344,44.6198,22.77,91,98,1.72,IR,2024-12-30
386,hobyo,5.3505,48.5268,78.17,68,49,18.41,SO,2024-12-30
387,necochea,-38.5473,-58.7368,65.12,60,99,16.93,AR,2024-12-30
388,jimeta,9.2833,12.4667,75.43,33,0,8.05,NG,2024-12-30
389,paredon,16.0333,-93.8667,76.19,79,31,4.36,MX,2024-12-30
390,yumbe,3.4651,31.2469,70.43,45,90,3.47,UG,2024-12-30
391,serenje,-13.2325,30.2352,63.21,97,100,2.75,ZM,2024-12-30
392,holualoa,19.6228,-155.9522,75.04,78,0,9.22,US,2024-12-30
393,ust-tsilma,65.441,52.1498,25.63,92,100,13.02,RU,2024-12-30
394,urangan,-25.3,152.9,77.43,75,20,12.71,AU,2024-12-30
395,miandrivazo,-19.5167,45.4667,81.95,68,63,2.98,MG,2024-12-30
396,erdek,40.3996,27.7935,44.87,81,40,4.61,TR,2024-12-30
397,santarem,-2.4431,-54.7083,75.33,100,0,3.44,BR,2024-12-30
398,la asuncion,11.0333,-63.8628,75.83,86,100,9.28,VE,2024-12-30
399,bangassou,4.7413,22.8184,64.62,34,22,3.4,CF,2024-12-30
400,peace river,56.2501,-117.286,8.91,78,100,4.61,CA,2024-12-30
401,kusheriki,10.5328,6.4422,72.91,21,14,9.35,NG,2024-12-30
402,tidjikja,18.5564,-11.4271,59.88,23,0,15.1,MR,2024-12-30
403,college,64.8569,-147.8028,-14.91,70,0,0.0,US,2024-12-30
404,jiwani,25.05,61.7417,71.22,59,46,2.04,PK,2024-12-30
405,concordia,-31.393,-58.0209,72.79,73,2,11.01,AR,2024-12-30
406,brokopondo,4.75,-55.1667,75.24,90,89,7.2,SR,2024-12-30
407,masuguru,-11.3667,38.4167,77.04,87,100,4.56,TZ,2024-12-30
408,fuding,27.3273,120.214,65.55,39,0,1.72,CN,2024-12-30
409,nantucket,41.2835,-70.0995,46.51,81,0,16.26,US,2024-12-30
410,ouani,-12.1322,44.4258,82.06,76,9,5.93,KM,2024-12-30
411,tromso,69.6496,18.957,33.82,60,75,16.11,NO,2024-12-30
412,papao,-17.75,-149.55,82.08,73,100,1.68,PF,2024-12-30
413,palma sola,-23.9634,-64.2987,77.85,49,95,3.33,AR,2024-12-30
414,likiep,9.8251,169.3107,81.37,76,52,16.4,MH,2024-12-30
415,mataram,-8.5833,116.1167,88.61,80,95,12.44,ID,2024-12-30
416,itaituba,-4.2761,-55.9836,72.54,99,89,1.52,BR,2024-12-30
417,muynoq,43.7683,59.0214,34.7,75,69,2.59,UZ,2024-12-30
418,ostuni,40.7276,17.5764,46.06,67,0,3.29,IT,2024-12-30
419,belyy yar,53.6039,91.3903,4.89,85,0,6.71,RU,2024-12-30
420,villa ojo de agua,-29.5,-63.6938,69.85,46,0,7.81,AR,2024-12-30
421,prince rupert,54.3161,-130.3201,40.69,91,100,11.5,CA,2024-12-30
422,sidrolandia,-20.9319,-54.9614,71.87,45,0,1.5,BR,2024-12-30
423,puerto colombia,10.9878,-74.9547,80.69,84,100,13.94,CO,2024-12-30
424,naze,28.3667,129.4833,61.72,54,0,17.49,JP,2024-12-30
425,khorixas,-20.3667,14.9667,68.68,34,60,8.79,NA,2024-12-30
426,siracusa,37.0881,15.2792,51.48,76,0,4.38,IT,2024-12-30
427,belen,36.4891,36.2233,39.34,87,75,4.61,TR,2024-12-30
428,labrador city,52.9463,-66.9114,33.71,99,100,40.0,CA,2024-12-30
429,san matias,-16.3667,-58.4,72.81,62,69,4.81,BO,2024-12-30
430,jaunpils,56.7325,23.0136,32.77,78,100,13.78,LV,2024-12-30
431,groningen,53.25,6.75,46.04,90,100,14.97,NL,2024-12-30
432,pine bluff,34.2284,-92.0032,60.73,75,0,8.05,US,2024-12-30
433,queenstown,-31.8976,26.8753,75.02,51,100,3.36,ZA,2024-12-30
434,kendal,54.3268,-2.7476,51.1,96,100,24.38,GB,2024-12-30
435,ta`u,-14.2336,-169.5144,84.2,66,99,4.92,AS,2024-12-30
436,miyako,39.6367,141.9525,39.11,97,96,8.34,JP,2024-12-30
437,sandikli,38.4647,30.2695,26.02,94,68,5.5,TR,2024-12-30
438,portland,45.5234,-122.6762,44.2,95,18,1.01,US,2024-12-30
439,amarkantak,22.6667,81.75,66.69,21,0,2.53,IN,2024-12-30
440,gunjur,13.2019,-16.7339,71.67,46,0,8.05,GM,2024-12-30
441,lodja,-3.4833,23.4333,71.85,79,100,1.45,CD,2024-12-30
442,itacare,-14.2775,-38.9967,76.73,83,100,4.9,BR,2024-12-30
443,warrnambool,-38.3833,142.4833,65.37,71,9,12.12,AU,2024-12-30
444,guadalupe y calvo,26.1,-106.9667,42.64,42,3,5.19,MX,2024-12-30
445,usakos,-22.0,15.6,70.61,31,39,3.24,NA,2024-12-30
446,zeribet el oued,34.6828,6.5111,53.06,53,77,6.06,DZ,2024-12-30
447,birao,10.2849,22.7882,65.5,18,8,10.51,CF,2024-12-30
448,trondheim,63.4305,10.3951,24.85,91,100,1.01,NO,2024-12-30
449,kongsberg,59.6652,9.6465,29.97,73,100,5.99,NO,2024-12-30
450,quiberon,47.4841,-3.1196,43.11,73,79,14.16,FR,2024-12-30
451,changde,29.0464,111.6783,58.98,27,0,0.34,CN,2024-12-30
452,nogliki,51.8333,143.1667,-2.42,96,99,2.66,RU,2024-12-30
453,san juan de miraflores,-12.1629,-76.9635,70.18,80,100,6.93,PE,2024-12-30
454,camana,-16.6228,-72.7111,68.45,87,100,5.59,PE,2024-12-30
455,pointe-noire,-4.7761,11.8635,75.27,94,20,4.61,CG,2024-12-30
456,tezpur,26.6333,92.8,71.65,49,0,1.99,IN,2024-12-30
457,as sulayyil,20.4607,45.5779,65.68,31,100,4.18,SA,2024-12-30
458,aral,40.5156,81.2636,24.33,56,60,3.89,CN,2024-12-30
459,nikolayevsk-on-amure,53.1406,140.73,-3.1,93,26,1.48,RU,2024-12-30
460,neryungri,56.6709,124.6491,2.73,94,100,1.45,RU,2024-12-30
461,preston,53.7667,-2.7167,49.68,75,100,18.45,GB,2024-12-30
462,hannut,50.6714,5.079,31.69,94,23,9.26,BE,2024-12-30
463,tongchuanshi,35.0806,109.0897,43.54,25,0,5.7,CN,2024-12-30
464,buala,-8.145,159.5921,83.07,76,80,1.88,SB,2024-12-30
465,ovalle,-30.5983,-71.2003,65.84,70,0,2.75,CL,2024-12-30
466,carbonear,47.7332,-53.2148,33.39,95,100,4.43,CA,2024-12-30
467,kolyshley,52.7005,44.5367,28.65,97,100,10.36,RU,2024-12-30
468,paragominas,-2.9667,-47.4833,73.42,89,93,1.97,BR,2024-12-30
469,shadipur julana,29.1333,76.4167,60.42,35,43,4.05,IN,2024-12-30
470,kargasok,59.0556,80.8572,12.27,88,22,12.75,RU,2024-12-30
471,port augusta,-32.5,137.7667,92.03,21,0,16.44,AU,2024-12-30
472,saint-pierre,-21.3393,55.4781,83.88,61,5,8.05,RE,2024-12-30
473,chernyshevskiy,63.0128,112.4714,-11.24,98,100,0.72,RU,2024-12-30
474,tres valles,18.2406,-96.135,68.27,89,48,4.23,MX,2024-12-30
475,madingou,-4.1536,13.55,73.08,97,100,1.39,CG,2024-12-30
476,timon,-5.0942,-42.8367,83.98,70,20,8.05,BR,2024-12-30
477,beaufort west,-32.3567,22.583,65.12,34,0,6.49,ZA,2024-12-30
478,remire-montjoly,4.9167,-52.2667,75.24,100,75,0.0,GF,2024-12-30
479,velikiy ustyug,60.7644,46.3106,26.4,89,99,13.47,RU,2024-12-30
480,kanniyakumari,8.0833,77.5667,81.5,71,100,27.42,IN,2024-12-30
481,smithers,54.7804,-127.1743,26.92,100,100,2.3,CA,2024-12-30
482,palangkaraya,-2.2,113.8333,84.09,75,100,1.72,ID,2024-12-30
483,galliano,29.4422,-90.2992,66.18,89,0,10.18,US,2024-12-30
484,cam ranh,11.9214,109.1591,78.76,69,75,12.66,VN,2024-12-30
485,banda aceh,5.5577,95.3222,81.25,76,100,3.09,ID,2024-12-30
486,crane,31.3974,-102.3501,59.22,18,0,6.69,US,2024-12-30
487,marshalltown,42.0494,-92.908,35.71,91,100,18.41,US,2024-12-30
488,camiri,-20.05,-63.5167,68.23,62,88,3.02,BO,2024-12-30
489,eureka,40.8021,-124.1637,42.19,95,0,8.93,US,2024-12-30
490,pontes e lacerda,-15.2261,-59.3353,75.43,74,100,1.43,BR,2024-12-30
491,spas-demensk,54.4122,34.0226,34.11,97,100,13.49,RU,2024-12-30
492,altay,47.8667,88.1167,14.56,90,87,0.45,CN,2024-12-30
493,ghat,24.9647,10.1728,53.33,37,100,7.45,LY,2024-12-30
494,broome,42.2506,-75.833,41.67,77,100,9.22,US,2024-12-30
495,antalaha,-14.9003,50.2788,75.74,89,100,4.43,MG,2024-12-30
496,magadan,59.5667,150.8,-6.84,80,75,5.88,RU,2024-12-30
497,khon buri,14.5254,102.2459,80.51,45,8,8.57,TH,2024-12-30
498,altamira,-3.2033,-52.2064,71.94,96,99,1.74,BR,2024-12-30
499,nshamba,-1.7983,31.5511,64.15,59,98,3.94,TZ,2024-12-30
500,cozumel,20.5083,-86.9458,73.94,92,88,6.2,MX,2024-12-30
501,margate,51.3813,1.3862,45.88,90,100,15.7,GB,2024-12-30
502,havre,49.5833,0.3333,38.97,93,100,8.05,FR,2024-12-30
503,kharabali,47.4196,47.2568,28.38,85,14,10.18,RU,2024-12-30
504,morehead city,34.7229,-76.726,55.0,89,0,5.75,US,2024-12-30
505,asbe teferi,9.0833,40.8667,61.74,50,56,6.26,ET,2024-12-30
506,santa ana,33.7456,-117.8678,55.15,89,75,3.44,US,2024-12-30
507,alegrete,-29.7831,-55.7919,70.12,72,81,13.69,BR,2024-12-30
508,cumbum,9.7333,77.3,77.97,73,69,9.4,IN,2024-12-30
509,batouri,4.4333,14.3667,68.09,35,79,2.51,CM,2024-12-30
510,road town,18.4167,-64.6167,76.5,59,100,13.56,VG,2024-12-30
511,malpe,13.35,74.7167,85.8,44,66,6.11,IN,2024-12-30
512,lethem,3.3803,-59.7968,80.22,65,94,8.34,GY,2024-12-30
513,newport,51.5877,-2.9984,48.45,93,100,18.37,GB,2024-12-30
514,qazigund,33.6333,75.15,34.38,57,63,3.98,IN,2024-12-30
515,motueka,-41.1333,173.0167,70.11,47,92,10.56,NZ,2024-12-30
516,beyla,8.6833,-8.6333,64.45,25,3,3.8,GN,2024-12-30
517,cedro,-6.6067,-39.0622,76.86,73,97,5.88,BR,2024-12-30
518,neyriz,29.1988,54.3278,50.05,83,100,8.88,IR,2024-12-30
519,kone,-21.0595,164.8658,84.6,54,17,6.76,NC,2024-12-30
520,rio grande,-32.035,-52.0986,68.88,83,45,15.43,BR,2024-12-30
521,dunedin,-45.8742,170.5036,55.49,84,67,8.46,NZ,2024-12-30
522,chul'man,56.8479,124.9104,1.04,95,100,1.74,RU,2024-12-30
523,upper dir,35.2058,71.8756,49.73,16,0,5.08,PK,2024-12-30
524,baardheere,2.3446,42.2764,78.08,65,37,12.57,SO,2024-12-30
525,lagoa da prata,-20.0225,-45.5436,66.31,94,16,3.0,BR,2024-12-30
526,challapata,-18.9,-66.7667,50.29,68,91,6.4,BO,2024-12-30
527,oamaru,-45.0784,170.9801,56.37,81,100,17.72,NZ,2024-12-30
528,itapirapua,-15.8233,-50.6133,70.02,96,96,2.82,BR,2024-12-30
529,east ballina,-28.8667,153.5833,76.15,64,64,11.41,AU,2024-12-30
530,barra de santo antonio,-9.4047,-35.5072,76.68,80,41,9.71,BR,2024-12-30
531,lensk,60.7253,114.9278,-1.17,94,100,3.09,RU,2024-12-30
532,bardai,11.65,7.2333,61.52,29,8,9.69,NG,2024-12-30
533,qalat,32.1058,66.9083,47.68,21,95,3.58,AF,2024-12-30
534,sulmona,42.0479,13.9291,45.91,58,0,4.43,IT,2024-12-30
535,island harbour,50.724,-1.2758,49.01,75,100,3.0,GB,2024-12-30
536,terme,41.2092,36.9739,44.01,81,100,5.95,TR,2024-12-30
537,pacific grove,36.6177,-121.9166,51.1,87,0,3.44,US,2024-12-30
538,viqueque,-8.8673,126.3658,80.96,82,100,3.4,TL,2024-12-30
539,ganshui,28.7422,106.7111,56.03,54,10,1.88,CN,2024-12-30
540,san antonio de pale,-1.4014,5.6325,79.99,80,100,10.09,GQ,2024-12-30
541,caxias,38.7031,-9.2767,46.96,73,0,3.44,PT,2024-12-30
542,campina verde,-19.5356,-49.4864,70.07,91,7,4.36,BR,2024-12-30
543,kuvshinovo,57.0295,34.1725,29.53,91,100,9.48,RU,2024-12-30
544,sao jose de ribamar,-2.5619,-44.0542,82.78,82,77,12.64,BR,2024-12-30
545,egilsstadir,65.2653,-14.3948,3.11,78,0,5.75,IS,2024-12-30
546,telfs,47.3,11.0667,35.83,73,6,5.99,AT,2024-12-30
547,gobabis,-22.45,18.9667,70.47,53,100,11.16,NA,2024-12-30
548,umm kaddadah,13.6017,26.6876,56.35,32,11,15.75,SD,2024-12-30
549,le puy-en-velay,45.0437,3.8852,33.76,71,0,3.47,FR,2024-12-30
550,fort stockton,30.894,-102.8793,63.75,13,0,11.5,US,2024-12-30
551,loango,-4.6719,11.8312,74.86,94,20,4.61,CG,2024-12-30
552,dolores,-36.3132,-57.6792,63.5,87,13,11.23,AR,2024-12-30
553,liberal,37.0431,-100.921,39.34,56,0,16.11,US,2024-12-30
554,mayya,61.7333,130.2811,-48.84,99,74,1.52,RU,2024-12-30
